[{"name":"Real Time Content","description":"World Headquarters","address1":"620 Eighth Avenue","address2":"46th Floor","zip_code":"10018","city":"New York","state_code":"NY","country_code":"USA","latitude":40.755959,"longitude":-73.990286,"geopoint":{"type":"Point","coordinates":[-73.990286,40.755959]}},{"name":"ideeli","description":"","address1":"620 8th Ave","address2":"45th Floor","zip_code":"10018","city":"New York","state_code":"NY","country_code":"USA","latitude":40.755978,"longitude":-73.990396,"geopoint":{"type":"Point","coordinates":[-73.990396,40.755978]}},{"name":"Magnetic","description":"New York, NY - HQ","address1":"311 W 43rd St","address2":"Suite 1406","zip_code":"10036","city":"New York","state_code":"NY","country_code":"USA","latitude":40.758343,"longitude":-73.990152,"geopoint":{"type":"Point","coordinates":[-73.990152,40.758343]}},{"name":"MindSmack","description":"MindSmack HQ","address1":"311 West 43rd Street","address2":"Penthouse","zip_code":"10036","city":"New York","state_code":"NY","country_code":"USA","latitude":40.758492,"longitude":-73.989987,"geopoint":{"type":"Point","coordinates":[-73.989987,40.758492]}},{"name":"MYSTYLEPOST","description":"","address1":"231 W. 39th St","address2":"Suite 905","zip_code":"10018","city":"New York","state_code":"NY","country_code":"USA","latitude":40.754901,"longitude":-73.989622,"geopoint":{"type":"Point","coordinates":[-73.989622,40.754901]}},{"name":"Thomson Reuters","description":"","address1":"3 Times Square","address2":"","zip_code":"10036","city":"New York","state_code":"NY","country_code":"USA","latitude":40.7564318,"longitude":-73.9871847,"geopoint":{"type":"Point","coordinates":[-73.9871847,40.7564318]}},{"name":"Thomson Reuters","description":"","address1":"3 Times Square","address2":"","zip_code":"10036","city":"New York","state_code":"NY","country_code":"USA","latitude":40.7564318,"longitude":-73.9871847,"geopoint":{"type":"Point","coordinates":[-73.9871847,40.7564318]}},{"name":"XB Labs","description":"","address1":"589 8th Ave.","address2":"","zip_code":"10018","city":"New York","state_code":"NY","country_code":"USA","latitude":40.755329,"longitude":-73.991605,"geopoint":{"type":"Point","coordinates":[-73.991605,40.755329]}},{"name":"Papervitamins","description":"USA","address1":"","address2":"","zip_code":"","city":"","state_code":"NY","country_code":"USA","latitude":40.756054,"longitude":-73.986951,"geopoint":{"type":"Point","coordinates":[-73.986951,40.756054]}},{"name":"Livekick","description":"","address1":"","address2":"","zip_code":"","city":"New York","state_code":"NY","country_code":"USA","latitude":40.756054,"longitude":-73.986951,"geopoint":{"type":"Point","coordinates":[-73.986951,40.756054]}},{"name":"bTrendie","description":"New York","address1":"","address2":"","zip_code":"","city":"","state_code":"NY","country_code":"USA","latitude":40.756054,"longitude":-73.986951,"geopoint":{"type":"Point","coordinates":[-73.986951,40.756054]}},{"name":"Primospot","description":"","address1":"","address2":"","zip_code":"","city":"New York","state_code":"NY","country_code":"USA","latitude":40.756054,"longitude":-73.986951,"geopoint":{"type":"Point","coordinates":[-73.986951,40.756054]}},{"name":"Fotohoo","description":"New York Office","address1":"","address2":"","zip_code":"","city":"New York","state_code":null,"country_code":"USA","latitude":40.756054,"longitude":-73.986951,"geopoint":{"type":"Point","coordinates":[-73.986951,40.756054]}},{"name":"Palyon Medical","description":"Palyon Medical","address1":"250 w 57th Street suite 2707","address2":"","zip_code":"10107","city":"New York","state_code":"NY","country_code":"USA","latitude":40.756054,"longitude":-73.986951,"geopoint":{"type":"Point","coordinates":[-73.986951,40.756054]}},{"name":"famebook","description":"JFK","address1":"","address2":"","zip_code":"","city":"","state_code":"NY","country_code":"USA","latitude":40.756054,"longitude":-73.986951,"geopoint":{"type":"Point","coordinates":[-73.986951,40.756054]}},{"name":"artandseek","description":"Headquarters","address1":"","address2":"","zip_code":"","city":"New York","state_code":"NY","country_code":"USA","latitude":40.756054,"longitude":-73.986951,"geopoint":{"type":"Point","coordinates":[-73.986951,40.756054]}},{"name":"Dragonfly","description":"","address1":"","address2":"","zip_code":"","city":"New York","state_code":"NY","country_code":"USA","latitude":40.756054,"longitude":-73.986951,"geopoint":{"type":"Point","coordinates":[-73.986951,40.756054]}},{"name":"CPower","description":"HQ","address1":"17 State Street","address2":"19th floor, Suite 1910","zip_code":"10004","city":"New York","state_code":"NY","country_code":"USA","latitude":40.756054,"longitude":-73.986951,"geopoint":{"type":"Point","coordinates":[-73.986951,40.756054]}},{"name":"Conversition","description":"HQ","address1":"","address2":"","zip_code":"","city":"New York City","state_code":"NY","country_code":"USA","latitude":40.756054,"longitude":-73.986951,"geopoint":{"type":"Point","coordinates":[-73.986951,40.756054]}},{"name":"Pictela","description":"Pictela New York","address1":"770 Broadway","address2":"","zip_code":"10003","city":"New York","state_code":"NY","country_code":"USA","latitude":40.756054,"longitude":-73.986951,"geopoint":{"type":"Point","coordinates":[-73.986951,40.756054]}},{"name":"Papervitamins","description":"USA","address1":"","address2":"","zip_code":"","city":"","state_code":"NY","country_code":"USA","latitude":40.756054,"longitude":-73.986951,"geopoint":{"type":"Point","coordinates":[-73.986951,40.756054]}},{"name":"The Talk Market","description":"","address1":"One Gateway Center, Suite 770","address2":"","zip_code":"07102","city":"New York","state_code":"NY","country_code":"USA","latitude":40.756054,"longitude":-73.986951,"geopoint":{"type":"Point","coordinates":[-73.986951,40.756054]}},{"name":"VSC Consulting","description":"New York","address1":"","address2":"","zip_code":"","city":"","state_code":"NY","country_code":"USA","latitude":40.756054,"longitude":-73.986951,"geopoint":{"type":"Point","coordinates":[-73.986951,40.756054]}},{"name":"artandseek","description":"Headquarters","address1":"","address2":"","zip_code":"","city":"New York","state_code":"NY","country_code":"USA","latitude":40.756054,"longitude":-73.986951,"geopoint":{"type":"Point","coordinates":[-73.986951,40.756054]}},{"name":"Wee Web","description":"","address1":"","address2":"","zip_code":"","city":"New York","state_code":"NY","country_code":"USA","latitude":40.756054,"longitude":-73.986951,"geopoint":{"type":"Point","coordinates":[-73.986951,40.756054]}},{"name":"Muckety","description":"","address1":"","address2":"","zip_code":"","city":"New York","state_code":"NY","country_code":"USA","latitude":40.756054,"longitude":-73.986951,"geopoint":{"type":"Point","coordinates":[-73.986951,40.756054]}},{"name":"Healism","description":"North America HQ","address1":"","address2":"","zip_code":"","city":"New York","state_code":"NY","country_code":"USA","latitude":40.756054,"longitude":-73.986951,"geopoint":{"type":"Point","coordinates":[-73.986951,40.756054]}},{"name":"Hirshorn Zuckerman Design Group","description":"","address1":"","address2":"","zip_code":"","city":"New York","state_code":"NY","country_code":"USA","latitude":40.756054,"longitude":-73.986951,"geopoint":{"type":"Point","coordinates":[-73.986951,40.756054]}},{"name":"UniversityJunction","description":"","address1":"","address2":"","zip_code":"","city":"New York","state_code":"NY","country_code":"USA","latitude":40.756054,"longitude":-73.986951,"geopoint":{"type":"Point","coordinates":[-73.986951,40.756054]}},{"name":"PlaceVine","description":"","address1":"","address2":"","zip_code":"","city":"New York","state_code":"NY","country_code":"USA","latitude":40.756054,"longitude":-73.986951,"geopoint":{"type":"Point","coordinates":[-73.986951,40.756054]}},{"name":"RefSeek","description":"RefSeek","address1":"","address2":"","zip_code":"","city":"New York","state_code":"NY","country_code":"USA","latitude":40.756054,"longitude":-73.986951,"geopoint":{"type":"Point","coordinates":[-73.986951,40.756054]}},{"name":"Arisey","description":"","address1":"","address2":"","zip_code":"","city":"New York","state_code":"NY","country_code":"USA","latitude":40.756054,"longitude":-73.986951,"geopoint":{"type":"Point","coordinates":[-73.986951,40.756054]}},{"name":"Medialets","description":"","address1":"","address2":"","zip_code":"","city":"New York","state_code":"NY","country_code":"USA","latitude":40.756054,"longitude":-73.986951,"geopoint":{"type":"Point","coordinates":[-73.986951,40.756054]}},{"name":"Odiogo","description":"New York","address1":"","address2":"","zip_code":"","city":"New York","state_code":"NY","country_code":"USA","latitude":40.756054,"longitude":-73.986951,"geopoint":{"type":"Point","coordinates":[-73.986951,40.756054]}},{"name":"Delivr","description":"","address1":"","address2":"","zip_code":"","city":"New York","state_code":null,"country_code":"USA","latitude":40.756054,"longitude":-73.986951,"geopoint":{"type":"Point","coordinates":[-73.986951,40.756054]}},{"name":"Yoostar","description":"Main Office","address1":"","address2":"","zip_code":"","city":"New York","state_code":"NY","country_code":"USA","latitude":40.756054,"longitude":-73.986951,"geopoint":{"type":"Point","coordinates":[-73.986951,40.756054]}},{"name":"People Capital","description":"Headquarters","address1":"","address2":"","zip_code":"","city":"New York","state_code":"NY","country_code":"USA","latitude":40.756054,"longitude":-73.986951,"geopoint":{"type":"Point","coordinates":[-73.986951,40.756054]}},{"name":"GameGround","description":"HQ","address1":"","address2":"","zip_code":"","city":"New York","state_code":"NY","country_code":"USA","latitude":40.756054,"longitude":-73.986951,"geopoint":{"type":"Point","coordinates":[-73.986951,40.756054]}},{"name":"Udorse","description":"","address1":"","address2":"","zip_code":"","city":"New York","state_code":"NY","country_code":"USA","latitude":40.756054,"longitude":-73.986951,"geopoint":{"type":"Point","coordinates":[-73.986951,40.756054]}},{"name":"Unicast","description":"Headquarters","address1":"205 West 39th Street","address2":"16th Floor","zip_code":"10018","city":"New York","state_code":"NY","country_code":"USA","latitude":40.754699,"longitude":-73.988834,"geopoint":{"type":"Point","coordinates":[-73.988834,40.754699]}},{"name":"Catalyst Resources","description":"Washington DC Office","address1":"2300 M St NW","address2":"Suite 800","zip_code":"20037","city":"Washington","state_code":"DC","country_code":"USA","latitude":40.75604,"longitude":-73.986941,"geopoint":{"type":"Point","coordinates":[-73.986941,40.75604]}},{"name":"ShopMyCloset","description":"","address1":"","address2":"","zip_code":"","city":"","state_code":"NY","country_code":"USA","latitude":40.75604,"longitude":-73.986941,"geopoint":{"type":"Point","coordinates":[-73.986941,40.75604]}},{"name":"My Damn Channel","description":"My Damn Channel, Inc.","address1":"202 W. 40th St.","address2":"16th Floor","zip_code":"10018","city":"New York","state_code":"NY","country_code":"USA","latitude":40.754762,"longitude":-73.988543,"geopoint":{"type":"Point","coordinates":[-73.988543,40.754762]}},{"name":"Admeld","description":"Admeld NYC (HQ)","address1":"One Madison Ave","address2":"4th Floor","zip_code":"10010","city":"New York","state_code":"NY","country_code":"USA","latitude":40.755253,"longitude":-73.992152,"geopoint":{"type":"Point","coordinates":[-73.992152,40.755253]}},{"name":"TravelCLICK","description":"Corporate Headquarters","address1":"7 Times Square","address2":"38th Floor","zip_code":"10036","city":"New York","state_code":"NY","country_code":"USA","latitude":40.755437,"longitude":-73.9868495,"geopoint":{"type":"Point","coordinates":[-73.9868495,40.755437]}},{"name":"CPXi","description":"Headquarters (NYC)","address1":"1441 Broadway","address2":"18th Floor","zip_code":"10018","city":"New York","state_code":"NY","country_code":"USA","latitude":40.7550708,"longitude":-73.9869523,"geopoint":{"type":"Point","coordinates":[-73.9869523,40.7550708]}},{"name":"Wakozi","description":null,"address1":"325 West 38th Street","address2":"Suite 807","zip_code":"10018","city":"New York City","state_code":"NY","country_code":"USA","latitude":40.755409,"longitude":-73.992706,"geopoint":{"type":"Point","coordinates":[-73.992706,40.755409]}},{"name":"Tech Support 4 NYC","description":"Headquarters","address1":"200 west 39th st","address2":"suite 163","zip_code":"10018","city":"new york","state_code":"NY","country_code":"USA","latitude":40.754142,"longitude":-73.9883596,"geopoint":{"type":"Point","coordinates":[-73.9883596,40.754142]}},{"name":"Zoomabet","description":null,"address1":"555 8th Ave., Suite 1903","address2":"","zip_code":"10018","city":"NY","state_code":"NY","country_code":"USA","latitude":40.754698,"longitude":-73.992152,"geopoint":{"type":"Point","coordinates":[-73.992152,40.754698]}},{"name":"Xanga","description":null,"address1":"555 8th Ave.","address2":"21st Floor","zip_code":"10018","city":"New York","state_code":"NY","country_code":"USA","latitude":40.754698,"longitude":-73.992152,"geopoint":{"type":"Point","coordinates":[-73.992152,40.754698]}},{"name":"MyPRGenie","description":"New York, NY","address1":"1501 Broadway","address2":"25th Floor","zip_code":"10036","city":"New York","state_code":"NY","country_code":"USA","latitude":40.757375,"longitude":-73.986005,"geopoint":{"type":"Point","coordinates":[-73.986005,40.757375]}},{"name":"Viacom","description":"HQ","address1":"1515 Broadway","address2":"","zip_code":"10036","city":"New York","state_code":"NY","country_code":"USA","latitude":40.757725,"longitude":-73.986011,"geopoint":{"type":"Point","coordinates":[-73.986011,40.757725]}},{"name":"MTV Networks","description":"HQ","address1":"1515 Broadway","address2":"","zip_code":"10036","city":"New York","state_code":"NY","country_code":"USA","latitude":40.757725,"longitude":-73.986011,"geopoint":{"type":"Point","coordinates":[-73.986011,40.757725]}},{"name":"Finsbury Solutions","description":"US Office","address1":"545 8th Avenue, Suite 401","address2":"","zip_code":"10018","city":"New York","state_code":"NY","country_code":"USA","latitude":40.75451,"longitude":-73.992193,"geopoint":{"type":"Point","coordinates":[-73.992193,40.75451]}},{"name":"NEHST Studios","description":null,"address1":"545 8th Avenue, Suite 401","address2":"","zip_code":"10018","city":"New York","state_code":"NY","country_code":"USA","latitude":40.75451,"longitude":-73.992193,"geopoint":{"type":"Point","coordinates":[-73.992193,40.75451]}},{"name":"Paramount Pictures","description":"Viacom Headquarters","address1":"1515 Broadway","address2":"","zip_code":"10036","city":"New York","state_code":"NY","country_code":"USA","latitude":40.7577017,"longitude":-73.9858165,"geopoint":{"type":"Point","coordinates":[-73.9858165,40.7577017]}},{"name":"AdSide","description":"Headquarters","address1":"247 West 37th Street","address2":"Suite 602","zip_code":"10018","city":"New York","state_code":"NY","country_code":"USA","latitude":40.753931,"longitude":-73.991123,"geopoint":{"type":"Point","coordinates":[-73.991123,40.753931]}},{"name":"Facilitas","description":null,"address1":"247 West 37th Street","address2":"","zip_code":"10018","city":"New York","state_code":"NY","country_code":"USA","latitude":40.753931,"longitude":-73.991123,"geopoint":{"type":"Point","coordinates":[-73.991123,40.753931]}},{"name":"AdSide","description":"Headquarters","address1":"247 West 37th Street","address2":"Suite 602","zip_code":"10018","city":"New York","state_code":"NY","country_code":"USA","latitude":40.753931,"longitude":-73.991123,"geopoint":{"type":"Point","coordinates":[-73.991123,40.753931]}},{"name":"Ladies Who Launch","description":null,"address1":"265 W 37th St","address2":"7th floor","zip_code":"10018","city":"New York","state_code":"NY","country_code":"USA","latitude":40.753877,"longitude":-73.991512,"geopoint":{"type":"Point","coordinates":[-73.991512,40.753877]}},{"name":"Kiwibox","description":"","address1":"330 W 38th Street","address2":"Suite 1602","zip_code":"10018","city":"New York","state_code":"NY","country_code":"USA","latitude":40.755243,"longitude":-73.9935,"geopoint":{"type":"Point","coordinates":[-73.9935,40.755243]}},{"name":"Wiredset","description":null,"address1":"","address2":"","zip_code":"","city":"","state_code":"NY","country_code":"USA","latitude":40.757929,"longitude":-73.985506,"geopoint":{"type":"Point","coordinates":[-73.985506,40.757929]}},{"name":"Propertyqube","description":"HQ","address1":"810 Taylor Ave. N.","address2":"#125","zip_code":"98109","city":"Seattle","state_code":"WA","country_code":"USA","latitude":40.757929,"longitude":-73.985506,"geopoint":{"type":"Point","coordinates":[-73.985506,40.757929]}},{"name":"Wists","description":null,"address1":"","address2":"","zip_code":"","city":"New York City","state_code":"NY","country_code":"USA","latitude":40.757929,"longitude":-73.985506,"geopoint":{"type":"Point","coordinates":[-73.985506,40.757929]}},{"name":"RiverWired","description":null,"address1":"","address2":"","zip_code":"","city":"New York","state_code":"NY","country_code":"USA","latitude":40.757929,"longitude":-73.985506,"geopoint":{"type":"Point","coordinates":[-73.985506,40.757929]}},{"name":"TableXchange","description":null,"address1":null,"address2":null,"zip_code":null,"city":"New York City","state_code":"NY","country_code":"USA","latitude":40.757929,"longitude":-73.985506,"geopoint":{"type":"Point","coordinates":[-73.985506,40.757929]}},{"name":"Grey Global Group","description":null,"address1":"","address2":"","zip_code":"","city":"New York City","state_code":"NY","country_code":"USA","latitude":40.757929,"longitude":-73.985506,"geopoint":{"type":"Point","coordinates":[-73.985506,40.757929]}},{"name":"Blog Talk Radio","description":null,"address1":"","address2":"","zip_code":"","city":"New York","state_code":"NY","country_code":"USA","latitude":40.757929,"longitude":-73.985506,"geopoint":{"type":"Point","coordinates":[-73.985506,40.757929]}},{"name":"HyperCalc","description":null,"address1":"","address2":"","zip_code":"","city":"New York","state_code":"NY","country_code":"USA","latitude":40.757929,"longitude":-73.985506,"geopoint":{"type":"Point","coordinates":[-73.985506,40.757929]}},{"name":"ConcertAttack","description":null,"address1":"","address2":"","zip_code":"","city":"","state_code":"NY","country_code":"USA","latitude":40.757929,"longitude":-73.985506,"geopoint":{"type":"Point","coordinates":[-73.985506,40.757929]}},{"name":"Clipmarks","description":null,"address1":null,"address2":null,"zip_code":null,"city":"New York","state_code":"NY","country_code":"USA","latitude":40.757929,"longitude":-73.985506,"geopoint":{"type":"Point","coordinates":[-73.985506,40.757929]}},{"name":"Lyquidity","description":null,"address1":"","address2":"","zip_code":"","city":"New York","state_code":"NY","country_code":"USA","latitude":40.757929,"longitude":-73.985506,"geopoint":{"type":"Point","coordinates":[-73.985506,40.757929]}},{"name":"UpNext","description":null,"address1":null,"address2":null,"zip_code":null,"city":"New York City","state_code":"NY","country_code":"USA","latitude":40.757929,"longitude":-73.985506,"geopoint":{"type":"Point","coordinates":[-73.985506,40.757929]}},{"name":"iVillage","description":null,"address1":null,"address2":null,"zip_code":null,"city":"New  York","state_code":"NY","country_code":"USA","latitude":40.757929,"longitude":-73.985506,"geopoint":{"type":"Point","coordinates":[-73.985506,40.757929]}},{"name":"Upshot Interactive","description":null,"address1":"","address2":"","zip_code":"","city":"New York","state_code":"NY","country_code":"USA","latitude":40.757929,"longitude":-73.985506,"geopoint":{"type":"Point","coordinates":[-73.985506,40.757929]}},{"name":"Fotolog","description":null,"address1":null,"address2":null,"zip_code":null,"city":"New York","state_code":"NY","country_code":"USA","latitude":40.757929,"longitude":-73.985506,"geopoint":{"type":"Point","coordinates":[-73.985506,40.757929]}},{"name":"Outbrain","description":"New York","address1":"116 E. 16th Street","address2":"12th Floor","zip_code":"10003","city":"New York City","state_code":"NY","country_code":"USA","latitude":40.757929,"longitude":-73.985506,"geopoint":{"type":"Point","coordinates":[-73.985506,40.757929]}},{"name":"Kidmondo","description":null,"address1":"","address2":"","zip_code":"","city":"New York","state_code":"NY","country_code":"USA","latitude":40.757929,"longitude":-73.985506,"geopoint":{"type":"Point","coordinates":[-73.985506,40.757929]}},{"name":"Massify","description":"","address1":"32 Cooper Square","address2":"Fl2","zip_code":"10003","city":"","state_code":"NY","country_code":"USA","latitude":40.757929,"longitude":-73.985506,"geopoint":{"type":"Point","coordinates":[-73.985506,40.757929]}},{"name":"Pinch Media","description":"","address1":"915 Broadway","address2":"Suite 607","zip_code":"10010","city":"New York","state_code":"NY","country_code":"USA","latitude":40.757929,"longitude":-73.985506,"geopoint":{"type":"Point","coordinates":[-73.985506,40.757929]}},{"name":"PeekYou","description":null,"address1":null,"address2":null,"zip_code":null,"city":"New York","state_code":"NY","country_code":"USA","latitude":40.757929,"longitude":-73.985506,"geopoint":{"type":"Point","coordinates":[-73.985506,40.757929]}},{"name":"Blogio","description":null,"address1":"","address2":"","zip_code":"","city":"","state_code":"NY","country_code":"USA","latitude":40.757929,"longitude":-73.985506,"geopoint":{"type":"Point","coordinates":[-73.985506,40.757929]}},{"name":"Gawker Media","description":"HQ","address1":"210 Elizabeth Street","address2":"Fourth Floor","zip_code":"10012","city":"New York","state_code":"NY","country_code":"USA","latitude":40.757929,"longitude":-73.985506,"geopoint":{"type":"Point","coordinates":[-73.985506,40.757929]}},{"name":"Jango","description":null,"address1":null,"address2":null,"zip_code":null,"city":"New York","state_code":"NY","country_code":"USA","latitude":40.757929,"longitude":-73.985506,"geopoint":{"type":"Point","coordinates":[-73.985506,40.757929]}},{"name":"Tacoda","description":null,"address1":null,"address2":null,"zip_code":null,"city":"New York","state_code":"NY","country_code":"USA","latitude":40.757929,"longitude":-73.985506,"geopoint":{"type":"Point","coordinates":[-73.985506,40.757929]}},{"name":"Chictini","description":null,"address1":"","address2":"","zip_code":"","city":"New York","state_code":"NY","country_code":"USA","latitude":40.757929,"longitude":-73.985506,"geopoint":{"type":"Point","coordinates":[-73.985506,40.757929]}},{"name":"MeetMoi","description":null,"address1":"","address2":"","zip_code":"","city":"New York City","state_code":"NY","country_code":"USA","latitude":40.757929,"longitude":-73.985506,"geopoint":{"type":"Point","coordinates":[-73.985506,40.757929]}},{"name":"1938 Media","description":null,"address1":"","address2":"","zip_code":"","city":"New York","state_code":"NY","country_code":"USA","latitude":40.757929,"longitude":-73.985506,"geopoint":{"type":"Point","coordinates":[-73.985506,40.757929]}},{"name":"Totspot","description":null,"address1":"","address2":"","zip_code":"","city":"New York","state_code":"NY","country_code":"USA","latitude":40.757929,"longitude":-73.985506,"geopoint":{"type":"Point","coordinates":[-73.985506,40.757929]}},{"name":"MyBloop","description":null,"address1":"","address2":"","zip_code":"","city":"","state_code":"NY","country_code":"USA","latitude":40.757929,"longitude":-73.985506,"geopoint":{"type":"Point","coordinates":[-73.985506,40.757929]}},{"name":"SnapVillage","description":null,"address1":null,"address2":null,"zip_code":null,"city":"New York","state_code":"NY","country_code":"USA","latitude":40.757929,"longitude":-73.985506,"geopoint":{"type":"Point","coordinates":[-73.985506,40.757929]}},{"name":"Gamers Media","description":null,"address1":"","address2":"","zip_code":"","city":"New York","state_code":"NY","country_code":"USA","latitude":40.757929,"longitude":-73.985506,"geopoint":{"type":"Point","coordinates":[-73.985506,40.757929]}},{"name":"revlayer","description":null,"address1":null,"address2":null,"zip_code":null,"city":"New York","state_code":"NY","country_code":"USA","latitude":40.757929,"longitude":-73.985506,"geopoint":{"type":"Point","coordinates":[-73.985506,40.757929]}},{"name":"Reuters","description":null,"address1":"","address2":"","zip_code":"","city":"New York","state_code":"NY","country_code":"USA","latitude":40.757929,"longitude":-73.985506,"geopoint":{"type":"Point","coordinates":[-73.985506,40.757929]}},{"name":"Camlink","description":"","address1":"","address2":"","zip_code":"95032","city":"Los Gatos","state_code":"CA","country_code":"USA","latitude":40.757929,"longitude":-73.985506,"geopoint":{"type":"Point","coordinates":[-73.985506,40.757929]}},{"name":"Epic Advertising","description":"World Headquarters","address1":"512 Seventh Avenue","address2":"12th Floor","zip_code":"10018","city":"New York","state_code":"NY","country_code":"USA","latitude":40.753403,"longitude":-73.989189,"geopoint":{"type":"Point","coordinates":[-73.989189,40.753403]}},{"name":"Heavy","description":null,"address1":"500 7th Avenue","address2":"17th Floor","zip_code":"10018","city":"New York","state_code":"NY","country_code":"USA","latitude":40.753385,"longitude":-73.98962,"geopoint":{"type":"Point","coordinates":[-73.98962,40.753385]}},{"name":"OpTier","description":"Corporate Headquarters","address1":"350 Fifth Avenue","address2":"Suite 6540","zip_code":"10118","city":"New York","state_code":"NY","country_code":"USA","latitude":40.754937,"longitude":-73.985647,"geopoint":{"type":"Point","coordinates":[-73.985647,40.754937]}},{"name":"yoonew","description":null,"address1":"1412 Broadway Suite 1822","address2":null,"zip_code":"10018","city":"New York","state_code":"NY","country_code":"USA","latitude":40.75362,"longitude":-73.986557,"geopoint":{"type":"Point","coordinates":[-73.986557,40.75362]}},{"name":"Flugpo","description":"Main Office","address1":"225 W. 36th Street","address2":"7th floor","zip_code":"10018","city":"New York","state_code":"NY","country_code":"USA","latitude":40.752898,"longitude":-73.990557,"geopoint":{"type":"Point","coordinates":[-73.990557,40.752898]}},{"name":"LineUpNewYork","description":null,"address1":"1410 Broadway","address2":null,"zip_code":"10018","city":"New York","state_code":"NY","country_code":"USA","latitude":40.753202,"longitude":-73.986771,"geopoint":{"type":"Point","coordinates":[-73.986771,40.753202]}},{"name":"Jambo Media","description":"New York Office","address1":"110 West 40th Street","address2":"Suite 604","zip_code":"10018","city":"New York","state_code":"NY","country_code":"USA","latitude":40.753652,"longitude":-73.98594,"geopoint":{"type":"Point","coordinates":[-73.98594,40.753652]}},{"name":"Eastmedia","description":"Eastmedia","address1":"144 W. 37th Street","address2":"Suite 6A","zip_code":"10018","city":"New York","state_code":"NY","country_code":"USA","latitude":40.752409,"longitude":-73.988676,"geopoint":{"type":"Point","coordinates":[-73.988676,40.752409]}},{"name":"PEX Card","description":"Headquarters","address1":"1375 Broadway","address2":"11th floor","zip_code":"10018","city":"New York","state_code":"NY","country_code":"USA","latitude":40.752539,"longitude":-73.987871,"geopoint":{"type":"Point","coordinates":[-73.987871,40.752539]}},{"name":"Oddcast","description":null,"address1":"134 W. 37th Street","address2":"7th Floor","zip_code":"10018","city":"New York","state_code":"NY","country_code":"USA","latitude":40.752325,"longitude":-73.988477,"geopoint":{"type":"Point","coordinates":[-73.988477,40.752325]}},{"name":"Salesconx","description":"Times Square","address1":"701 Seventh Ave","address2":"9th Floor","zip_code":"10036","city":"New York","state_code":"NY","country_code":"USA","latitude":40.759243,"longitude":-73.98459,"geopoint":{"type":"Point","coordinates":[-73.98459,40.759243]}},{"name":"Social Sauce","description":"HQ","address1":"213 W. 35th St.","address2":"Suite 806","zip_code":"10001","city":"New York","state_code":"NY","country_code":"USA","latitude":40.752143,"longitude":-73.990675,"geopoint":{"type":"Point","coordinates":[-73.990675,40.752143]}},{"name":"Genesiz","description":"Corporate","address1":"213 West 35th Street","address2":"Suite # 1201A","zip_code":"1001","city":"New York","state_code":"NY","country_code":"USA","latitude":40.752143,"longitude":-73.990675,"geopoint":{"type":"Point","coordinates":[-73.990675,40.752143]}},{"name":"Stream57","description":"Stream57 Headquarters","address1":"462 7th Avenue","address2":"","zip_code":"10018","city":"NY","state_code":"NY","country_code":"USA","latitude":40.751969,"longitude":-73.99031,"geopoint":{"type":"Point","coordinates":[-73.99031,40.751969]}},{"name":"LivePerson","description":"Corporate Office","address1":"475 10th Avenue","address2":"5th Floor","zip_code":"10018","city":"New York","state_code":"NY","country_code":"USA","latitude":40.751969,"longitude":-73.99031,"geopoint":{"type":"Point","coordinates":[-73.99031,40.751969]}},{"name":"TradingUp Online","description":"","address1":"260 west 35th street","address2":"","zip_code":"10001","city":"New York","state_code":"NY","country_code":"USA","latitude":40.752404,"longitude":-73.992544,"geopoint":{"type":"Point","coordinates":[-73.992544,40.752404]}},{"name":"ScienCentral","description":"ScienCentral Inc.","address1":"248 W 35th St.","address2":"17th Floor","zip_code":"10001","city":"New York","state_code":"NY","country_code":"USA","latitude":40.752224,"longitude":-73.99211,"geopoint":{"type":"Point","coordinates":[-73.99211,40.752224]}},{"name":"Veotag","description":null,"address1":"1040 Avenue of the Americas","address2":"24th Floor","zip_code":"10018","city":"New York","state_code":"NY","country_code":"USA","latitude":40.752957,"longitude":-73.98546,"geopoint":{"type":"Point","coordinates":[-73.98546,40.752957]}},{"name":"SeeToo","description":"","address1":"","address2":"","zip_code":"","city":"New York","state_code":"NY","country_code":"USA","latitude":40.755861,"longitude":-73.996272,"geopoint":{"type":"Point","coordinates":[-73.996272,40.755861]}},{"name":"Optimum Energy","description":"New York office","address1":"1370 Broadway","address2":"Suite 503","zip_code":"10018","city":"New York","state_code":"NY","country_code":"USA","latitude":40.7518919,"longitude":-73.9875922,"geopoint":{"type":"Point","coordinates":[-73.9875922,40.7518919]}},{"name":"Coleman Research Group","description":"","address1":"1040 Avenue of the Americas","address2":"3rd Floor","zip_code":"10018","city":"New York","state_code":"NY","country_code":"USA","latitude":40.752953,"longitude":-73.985025,"geopoint":{"type":"Point","coordinates":[-73.985025,40.752953]}},{"name":"Giant Realm","description":"HQ","address1":"1156 6th Ave,","address2":"3rd Floor","zip_code":"10036","city":"New York","state_code":"NY","country_code":"USA","latitude":40.7566658,"longitude":-73.9827553,"geopoint":{"type":"Point","coordinates":[-73.9827553,40.7566658]}},{"name":"Lotame","description":"New York Office","address1":"440 Ninth Ave","address2":"18th Floor","zip_code":"10001","city":"New York","state_code":"MD","country_code":"USA","latitude":40.753631,"longitude":-73.995487,"geopoint":{"type":"Point","coordinates":[-73.995487,40.753631]}},{"name":"OgilvyOne","description":"Corporate Headquarters","address1":"309 West 49th Street","address2":"","zip_code":"10019","city":"New York","state_code":"NY","country_code":"USA","latitude":40.762052,"longitude":-73.98749,"geopoint":{"type":"Point","coordinates":[-73.98749,40.762052]}},{"name":"Interpublic Group","description":"","address1":"1114 Avenue of the Americas","address2":"","zip_code":"10036","city":"New York","state_code":"NY","country_code":"USA","latitude":40.754683,"longitude":-73.982666,"geopoint":{"type":"Point","coordinates":[-73.982666,40.754683]}},{"name":"Wall Street Journal","description":"Wall Street Journal","address1":"1211 Avenue of the Americas","address2":"","zip_code":"10036","city":"New York","state_code":"NY","country_code":"USA","latitude":40.7587059,"longitude":-73.9824129,"geopoint":{"type":"Point","coordinates":[-73.9824129,40.7587059]}},{"name":"Petciety","description":"Office","address1":"360 West 34th Street","address2":"9E","zip_code":"10001","city":"New York","state_code":"NY","country_code":"USA","latitude":40.753207,"longitude":-73.995886,"geopoint":{"type":"Point","coordinates":[-73.995886,40.753207]}},{"name":"Petciety","description":"Office","address1":"360 West 34th Street","address2":"9E","zip_code":"10001","city":"New York","state_code":"NY","country_code":"USA","latitude":40.753207,"longitude":-73.995886,"geopoint":{"type":"Point","coordinates":[-73.995886,40.753207]}},{"name":"HR Integrations","description":"New York City","address1":"11 Penn Plaza","address2":"","zip_code":"10011","city":"New York","state_code":"NY","country_code":"USA","latitude":40.752078,"longitude":-73.994785,"geopoint":{"type":"Point","coordinates":[-73.994785,40.752078]}},{"name":"WeMix","description":"Headquarters","address1":"101 E Cresse","address2":"","zip_code":"08260","city":"Wildood","state_code":"NJ","country_code":"USA","latitude":40.7554379,"longitude":-73.9815358,"geopoint":{"type":"Point","coordinates":[-73.9815358,40.7554379]}},{"name":"Dada Entertainment","description":"Headquarters","address1":"11 West 42nd Street","address2":"15th Floor","zip_code":"10036","city":"New York","state_code":"NY","country_code":"USA","latitude":40.7543,"longitude":-73.981847,"geopoint":{"type":"Point","coordinates":[-73.981847,40.7543]}},{"name":"Dada Entertainment","description":"Headquarters","address1":"11 West 42nd Street","address2":"15th Floor","zip_code":"10036","city":"New York","state_code":"NY","country_code":"USA","latitude":40.7543,"longitude":-73.981847,"geopoint":{"type":"Point","coordinates":[-73.981847,40.7543]}},{"name":"Upoc","description":"","address1":"11 West 42nd St","address2":"15th Floor","zip_code":"10036","city":"New York","state_code":"NY","country_code":"USA","latitude":40.7543,"longitude":-73.981847,"geopoint":{"type":"Point","coordinates":[-73.981847,40.7543]}},{"name":"KickApps","description":"Headquarters","address1":"26 W 17th Street","address2":"2nd Floor","zip_code":"10011","city":"New York","state_code":"NY","country_code":"USA","latitude":40.7516611,"longitude":-73.9843328,"geopoint":{"type":"Point","coordinates":[-73.9843328,40.7516611]}},{"name":"Fotki","description":"Fotki HQ","address1":"13071 240 Street","address2":"","zip_code":"V4R 0A5","city":"Maple Ridge, BC","state_code":null,"country_code":"CAN","latitude":40.750823,"longitude":-73.985833,"geopoint":{"type":"Point","coordinates":[-73.985833,40.750823]}},{"name":"Converseon","description":"","address1":"53 West 36th,","address2":"8th Floor","zip_code":"10018","city":"New York","state_code":"NY","country_code":"USA","latitude":40.750823,"longitude":-73.985833,"geopoint":{"type":"Point","coordinates":[-73.985833,40.750823]}},{"name":"Simparel","description":"","address1":"53 West 36th Street","address2":"11th Floor","zip_code":"10018","city":"New York","state_code":"NY","country_code":"USA","latitude":40.750823,"longitude":-73.985833,"geopoint":{"type":"Point","coordinates":[-73.985833,40.750823]}},{"name":"Cellfish","description":"","address1":"215 Lexington Avenue","address2":"","zip_code":"10016","city":"New York","state_code":"NY","country_code":"USA","latitude":40.761855,"longitude":-73.983754,"geopoint":{"type":"Point","coordinates":[-73.983754,40.761855]}},{"name":"Connectiva Systems","description":"","address1":"19 W44th Street","address2":"Suite 611-12","zip_code":"10036","city":"New York","state_code":"NY","country_code":"USA","latitude":40.755531,"longitude":-73.980861,"geopoint":{"type":"Point","coordinates":[-73.980861,40.755531]}},{"name":"Deloitte","description":"","address1":"1633 Broadway","address2":"","zip_code":"","city":"New York","state_code":"NY","country_code":"USA","latitude":40.7618675,"longitude":-73.9837603,"geopoint":{"type":"Point","coordinates":[-73.9837603,40.7618675]}},{"name":"Odeo","description":null,"address1":"500 Fifth Avenue","address2":"Suite 1650","zip_code":"10110","city":"New York","state_code":"NY","country_code":"USA","latitude":40.753918,"longitude":-73.981237,"geopoint":{"type":"Point","coordinates":[-73.981237,40.753918]}},{"name":"Behind the Burner","description":"","address1":"500 Fifth Avenue","address2":"12th Floor","zip_code":"10110","city":"New York","state_code":"NY","country_code":"USA","latitude":40.753918,"longitude":-73.981237,"geopoint":{"type":"Point","coordinates":[-73.981237,40.753918]}},{"name":"YEAONAY","description":"","address1":"127 East 28 Street","address2":"2R","zip_code":"10016","city":"New York","state_code":"NY","country_code":"USA","latitude":40.751234,"longitude":-73.9952442,"geopoint":{"type":"Point","coordinates":[-73.9952442,40.751234]}},{"name":"Altaine","description":"","address1":"","address2":"","zip_code":"","city":"Manhatton","state_code":null,"country_code":"USA","latitude":40.749884,"longitude":-73.987977,"geopoint":{"type":"Point","coordinates":[-73.987977,40.749884]}},{"name":"Crispy Gamer","description":"","address1":"35 West 36th Street","address2":"Suite 4W","zip_code":"10018","city":"New York","state_code":"NY","country_code":"USA","latitude":40.750597,"longitude":-73.985273,"geopoint":{"type":"Point","coordinates":[-73.985273,40.750597]}},{"name":"Peer39","description":"Headquarters","address1":"36 West 25th Street","address2":"2nd Floor","zip_code":"10010","city":"New York","state_code":"NY","country_code":"USA","latitude":40.755446,"longitude":-73.980246,"geopoint":{"type":"Point","coordinates":[-73.980246,40.755446]}},{"name":"Meck Technology","description":null,"address1":"560 West 43rd St #6D","address2":"","zip_code":"10036","city":"New York","state_code":"NY","country_code":"USA","latitude":40.76126,"longitude":-73.99726,"geopoint":{"type":"Point","coordinates":[-73.99726,40.76126]}},{"name":"LogLogic","description":"New York Office","address1":"5 Penn Plaza","address2":"23rd Floor","zip_code":"10001","city":"New York","state_code":"NY","country_code":"USA","latitude":40.749577,"longitude":-73.9916486,"geopoint":{"type":"Point","coordinates":[-73.9916486,40.749577]}},{"name":"Relegence","description":"","address1":"2 Penn Plaza","address2":"Suite 1960","zip_code":"10121","city":"New York","state_code":"NY","country_code":"USA","latitude":40.7495594,"longitude":-73.9916617,"geopoint":{"type":"Point","coordinates":[-73.9916617,40.7495594]}},{"name":"CollegeClickTV","description":"","address1":"One Penn Plaza","address2":"Suite 5328","zip_code":"10119","city":"New York","state_code":"NY","country_code":"USA","latitude":40.7495594,"longitude":-73.9916617,"geopoint":{"type":"Point","coordinates":[-73.9916617,40.7495594]}},{"name":"American Higher Education Development","description":"Corporate Office","address1":"Two Penn Plaza","address2":"Suite 1500","zip_code":"10121","city":"New York","state_code":"NY","country_code":"USA","latitude":40.749559,"longitude":-73.991662,"geopoint":{"type":"Point","coordinates":[-73.991662,40.749559]}},{"name":"DreamFace Interactive","description":"Dreamface US","address1":"500 5th Ave.","address2":"Suite 55","zip_code":"10013","city":"New York","state_code":"NY","country_code":"USA","latitude":40.7537339,"longitude":-73.980737,"geopoint":{"type":"Point","coordinates":[-73.980737,40.7537339]}},{"name":"F5 Networks","description":"New York Office","address1":"424 W. 33rd Street","address2":"Suite 530-550","zip_code":"10001","city":"New York","state_code":"NY","country_code":"USA","latitude":40.75304,"longitude":-73.998135,"geopoint":{"type":"Point","coordinates":[-73.998135,40.75304]}},{"name":"Velocix","description":"New York Office","address1":"1230 Avenue of the Americas","address2":"","zip_code":"10020","city":"New York","state_code":"NY","country_code":"USA","latitude":40.758504,"longitude":-73.980068,"geopoint":{"type":"Point","coordinates":[-73.980068,40.758504]}},{"name":"Associated Press","description":"","address1":"450 W. 33rd St.","address2":"","zip_code":"10001","city":"New York","state_code":"NY","country_code":"USA","latitude":40.7535,"longitude":-73.998615,"geopoint":{"type":"Point","coordinates":[-73.998615,40.7535]}},{"name":"33Across","description":"","address1":"229 W 28th St.","address2":"12th Fl.","zip_code":"10001","city":"New York","state_code":"NY","country_code":"USA","latitude":40.75406,"longitude":-73.999003,"geopoint":{"type":"Point","coordinates":[-73.999003,40.75406]}},{"name":"Visible World","description":"Headquarters","address1":"460 W. 34th St. Floor 14","address2":"","zip_code":"10001","city":"New York","state_code":"NY","country_code":"USA","latitude":40.75406,"longitude":-73.999003,"geopoint":{"type":"Point","coordinates":[-73.999003,40.75406]}},{"name":"GoLark","description":null,"address1":"","address2":null,"zip_code":"10001","city":"","state_code":"NY","country_code":"USA","latitude":40.7508,"longitude":-73.996122,"geopoint":{"type":"Point","coordinates":[-73.996122,40.7508]}},{"name":"Unigo","description":"Unigo","address1":"21 West 46th Street","address2":"6th Floor","zip_code":"10036","city":"New York","state_code":"NY","country_code":"USA","latitude":40.7568493,"longitude":-73.9793465,"geopoint":{"type":"Point","coordinates":[-73.9793465,40.7568493]}},{"name":"Facebook","description":"New York","address1":"340 Madison Ave","address2":"","zip_code":"10017","city":"New York","state_code":"NY","country_code":"USA","latitude":40.7557162,"longitude":-73.9792469,"geopoint":{"type":"Point","coordinates":[-73.9792469,40.7557162]}},{"name":"ArtNeighbor","description":"World Headquarters","address1":"","address2":"","zip_code":"10001","city":"New York City","state_code":"NY","country_code":"USA","latitude":40.7489381,"longitude":-73.9918181,"geopoint":{"type":"Point","coordinates":[-73.9918181,40.7489381]}},{"name":"Strategist News","description":"","address1":"","address2":"","zip_code":"10001","city":"New York","state_code":"NY","country_code":"USA","latitude":40.7489381,"longitude":-73.9918181,"geopoint":{"type":"Point","coordinates":[-73.9918181,40.7489381]}},{"name":"SpaceTime","description":"","address1":"576 Fifth Avenue","address2":"","zip_code":"10036","city":"New York","state_code":"NY","country_code":"USA","latitude":40.756662,"longitude":-73.979038,"geopoint":{"type":"Point","coordinates":[-73.979038,40.756662]}},{"name":"Marvel Entertainment","description":"Marvel Entertainment Inc","address1":"417 5th. Avenue","address2":"","zip_code":"10016","city":"New York","state_code":"NY","country_code":"USA","latitude":40.750576,"longitude":-73.982713,"geopoint":{"type":"Point","coordinates":[-73.982713,40.750576]}},{"name":"Synesis IT","description":"Synesis IT","address1":"43 W 33rd St","address2":"","zip_code":"10001","city":"New York","state_code":"NY","country_code":"USA","latitude":40.748873,"longitude":-73.987106,"geopoint":{"type":"Point","coordinates":[-73.987106,40.748873]}},{"name":"Adknowledge","description":"Adknowledge New York","address1":"7 Penn Plaza","address2":"370 Seventh Ave., 17th Fl.","zip_code":"10001","city":"New York","state_code":"NY","country_code":"USA","latitude":40.748901,"longitude":-73.992463,"geopoint":{"type":"Point","coordinates":[-73.992463,40.748901]}},{"name":"Terra-Gen Power","description":"New York City Office","address1":"565 Fifth Avenue","address2":"27th Floor","zip_code":"10017","city":"New York","state_code":"NY","country_code":"USA","latitude":40.7562295,"longitude":-73.9788753,"geopoint":{"type":"Point","coordinates":[-73.9788753,40.7562295]}},{"name":"TheMarkets","description":"","address1":"810 Seventh Avenue","address2":"","zip_code":"10019","city":"New York","state_code":"NY","country_code":"USA","latitude":40.762674,"longitude":-73.9821315,"geopoint":{"type":"Point","coordinates":[-73.9821315,40.762674]}},{"name":"Scanbuy","description":"","address1":"10 East 39th Street","address2":"10th Floor","zip_code":"10016","city":"New York","state_code":"NY","country_code":"USA","latitude":40.7512062,"longitude":-73.9815333,"geopoint":{"type":"Point","coordinates":[-73.9815333,40.7512062]}},{"name":"BountyJobs","description":"World Headquarters","address1":"230 W 41st street","address2":"14th Floor","zip_code":"10036","city":"New York","state_code":"NY","country_code":"USA","latitude":40.754211,"longitude":-73.97917,"geopoint":{"type":"Point","coordinates":[-73.97917,40.754211]}},{"name":"MacArthur Associates","description":"MacArthur New York","address1":"11 E. 44th St.","address2":"Suite 1700","zip_code":"10017","city":"New York","state_code":"NY","country_code":"USA","latitude":40.7543489,"longitude":-73.9789451,"geopoint":{"type":"Point","coordinates":[-73.9789451,40.7543489]}},{"name":"Atlantis Partners","description":"Atlantis New York","address1":"11 E. 44th Street","address2":"Suite 301","zip_code":"10017","city":"New York","state_code":"NY","country_code":"USA","latitude":40.7543489,"longitude":-73.9789451,"geopoint":{"type":"Point","coordinates":[-73.9789451,40.7543489]}},{"name":"Workbridge Associates","description":"NEW YORK","address1":"11 East 44th Street","address2":"Suite 1200","zip_code":"10017","city":"New York","state_code":"NY","country_code":"USA","latitude":40.7543489,"longitude":-73.9789451,"geopoint":{"type":"Point","coordinates":[-73.9789451,40.7543489]}},{"name":"Napier Partners","description":"Napier Partners","address1":"11 E. 44th Street","address2":"Suite 1200","zip_code":"10017","city":"New York","state_code":"NY","country_code":"USA","latitude":40.7543489,"longitude":-73.9789451,"geopoint":{"type":"Point","coordinates":[-73.9789451,40.7543489]}},{"name":"IrishCentral","description":"New York","address1":"875 Sixth Avenue","address2":"","zip_code":"10001","city":"New York","state_code":"NY","country_code":"USA","latitude":40.74828,"longitude":-73.989276,"geopoint":{"type":"Point","coordinates":[-73.989276,40.74828]}},{"name":"Springo","description":"","address1":"608 5th Avenue","address2":"Suite 300","zip_code":"10020","city":"New York","state_code":"NY","country_code":"USA","latitude":40.758062,"longitude":-73.978432,"geopoint":{"type":"Point","coordinates":[-73.978432,40.758062]}},{"name":"Unisfair","description":"New York Office","address1":"1250 Broadway","address2":"31st floor","zip_code":"10001","city":"New York","state_code":"NY","country_code":"USA","latitude":40.7482,"longitude":-73.988154,"geopoint":{"type":"Point","coordinates":[-73.988154,40.7482]}},{"name":"LucidMedia","description":"Lucid Media NY","address1":"274 Madison Avenue","address2":"Suite 701","zip_code":"10016","city":"New York","state_code":"NY","country_code":"USA","latitude":40.751336,"longitude":-73.980739,"geopoint":{"type":"Point","coordinates":[-73.980739,40.751336]}},{"name":"TxVia","description":"Corporate Headquarters","address1":"340 Madison Ave.","address2":"3rd Floor","zip_code":"10173","city":"New York","state_code":"NY","country_code":"USA","latitude":40.753881,"longitude":-73.978852,"geopoint":{"type":"Point","coordinates":[-73.978852,40.753881]}},{"name":"TMP Directional Marketing","description":"Corporate Headquarters","address1":"317 Madison Ave.","address2":"Suite 2310","zip_code":"NY 10017","city":"New York","state_code":"NY","country_code":"USA","latitude":40.7530803,"longitude":-73.9790822,"geopoint":{"type":"Point","coordinates":[-73.9790822,40.7530803]}},{"name":"Jumptap","description":"Jumptap New York","address1":"38 East 32nd Street","address2":"11th Floor","zip_code":"10016","city":"New York City","state_code":"NY","country_code":"USA","latitude":40.751478,"longitude":-73.980305,"geopoint":{"type":"Point","coordinates":[-73.980305,40.751478]}},{"name":"Jumptap","description":"Jumptap New York","address1":"38 East 32nd Street","address2":"11th Floor","zip_code":"10016","city":"New York City","state_code":"NY","country_code":"USA","latitude":40.751478,"longitude":-73.980305,"geopoint":{"type":"Point","coordinates":[-73.980305,40.751478]}},{"name":"BarterQuest","description":"New York Office","address1":"231 W 29th street","address2":"","zip_code":"10001","city":"New York","state_code":"NY","country_code":"USA","latitude":40.748634,"longitude":-73.994203,"geopoint":{"type":"Point","coordinates":[-73.994203,40.748634]}},{"name":"Warner Music Group","description":"","address1":"75 Rockefeller Plaza","address2":"","zip_code":"10019","city":"New York","state_code":"NY","country_code":"USA","latitude":40.7592189,"longitude":-73.9783534,"geopoint":{"type":"Point","coordinates":[-73.9783534,40.7592189]}},{"name":"Aleri","description":"New York","address1":"75 Rockefeller Plaza, 18th Floor","address2":"","zip_code":"10019","city":"New York","state_code":"NY","country_code":"USA","latitude":40.7592189,"longitude":-73.9783534,"geopoint":{"type":"Point","coordinates":[-73.9783534,40.7592189]}},{"name":"SheZoom","description":"","address1":"335 Madison Avenue","address2":"15th Floor","zip_code":"10017","city":"New York","state_code":"NY","country_code":"USA","latitude":40.7538639,"longitude":-73.9785086,"geopoint":{"type":"Point","coordinates":[-73.9785086,40.7538639]}},{"name":"Social Median","description":"Corporate Headquarters","address1":"11 E. 36th St.","address2":"#705","zip_code":"10016","city":"New York","state_code":"NY","country_code":"USA","latitude":40.74963,"longitude":-73.982575,"geopoint":{"type":"Point","coordinates":[-73.982575,40.74963]}},{"name":"RankAbove","description":"RankAbove USA","address1":"345 7th Ave","address2":"Suite 503","zip_code":"10001","city":"New York","state_code":"NY","country_code":"USA","latitude":40.748047,"longitude":-73.992402,"geopoint":{"type":"Point","coordinates":[-73.992402,40.748047]}},{"name":"OneBigPlanet","description":"","address1":"244 Madison Avenue","address2":"#729","zip_code":"10016","city":"New York","state_code":"NY","country_code":"USA","latitude":40.7501311,"longitude":-73.9812417,"geopoint":{"type":"Point","coordinates":[-73.9812417,40.7501311]}},{"name":"Sky Bird Travel  Tours","description":"","address1":"350 Fifth Avenue","address2":"Suite 610","zip_code":"10118","city":"New York","state_code":"NY","country_code":"USA","latitude":40.7483487,"longitude":-73.984615,"geopoint":{"type":"Point","coordinates":[-73.984615,40.7483487]}},{"name":"RRD USA","description":null,"address1":"350 5th Avenue, Suite 3600","address2":"","zip_code":"10118","city":"New York","state_code":"NY","country_code":"USA","latitude":40.748342,"longitude":-73.984606,"geopoint":{"type":"Point","coordinates":[-73.984606,40.748342]}},{"name":"Traiana","description":"","address1":"51 East 42nd St.","address2":"10th floor","zip_code":"10017","city":"New York","state_code":"NY","country_code":"USA","latitude":40.752844,"longitude":-73.978324,"geopoint":{"type":"Point","coordinates":[-73.978324,40.752844]}},{"name":"FirstRain","description":"FirstRain New York","address1":"60 East 42nd Street","address2":"Suite 3030","zip_code":"10165","city":"New York","state_code":"NY","country_code":"USA","latitude":40.7521126,"longitude":-73.9786947,"geopoint":{"type":"Point","coordinates":[-73.9786947,40.7521126]}},{"name":"Pipeline Financial Group","description":"Corporate Headquarters","address1":"60 East 42nd Street","address2":"Suite 624","zip_code":"10165","city":"New York","state_code":"NY","country_code":"USA","latitude":40.7524135,"longitude":-73.9783331,"geopoint":{"type":"Point","coordinates":[-73.9783331,40.7524135]}},{"name":"Pluribo","description":"","address1":"100 Park Ave","address2":"16th Floor","zip_code":"10017","city":"New York","state_code":"NY","country_code":"USA","latitude":40.751293,"longitude":-73.978887,"geopoint":{"type":"Point","coordinates":[-73.978887,40.751293]}},{"name":"RavenPack","description":"US Sales Office","address1":"100 Park Ave. Suite 1600","address2":"","zip_code":"10017","city":"New York","state_code":"NY","country_code":"USA","latitude":40.751293,"longitude":-73.978887,"geopoint":{"type":"Point","coordinates":[-73.978887,40.751293]}},{"name":"FinAnalytica","description":"","address1":"100 Park Avenue, 16th Floor","address2":"","zip_code":"10017","city":"New York","state_code":"NY","country_code":"USA","latitude":40.751293,"longitude":-73.978887,"geopoint":{"type":"Point","coordinates":[-73.978887,40.751293]}},{"name":"Athena Archiver","description":null,"address1":"130 West 29th Street","address2":"6th Floor","zip_code":"10001","city":"New York","state_code":"NY","country_code":"USA","latitude":40.747003,"longitude":-73.991562,"geopoint":{"type":"Point","coordinates":[-73.991562,40.747003]}},{"name":"Yellow SEO","description":"New York Office","address1":"130 W 29th Street","address2":"6 Fl","zip_code":"10001","city":"New York","state_code":"NY","country_code":"USA","latitude":40.747003,"longitude":-73.991562,"geopoint":{"type":"Point","coordinates":[-73.991562,40.747003]}},{"name":"Good Technology","description":"","address1":"100 Park Avenue","address2":"Suite 1600","zip_code":"10017","city":"New York","state_code":"NY","country_code":"USA","latitude":40.7511339,"longitude":-73.978807,"geopoint":{"type":"Point","coordinates":[-73.978807,40.7511339]}},{"name":"Live2Support","description":"US Crossponding Address","address1":"47-47 36th Street","address2":"Suite # 20442","zip_code":"11101","city":"Long Island City","state_code":"NY","country_code":"USA","latitude":40.7488761,"longitude":-73.9815793,"geopoint":{"type":"Point","coordinates":[-73.9815793,40.7488761]}},{"name":"Qtrax","description":null,"address1":"211 Madison Avenue","address2":"# 28B","zip_code":"10016","city":"New York","state_code":"NY","country_code":"USA","latitude":40.748641,"longitude":-73.981947,"geopoint":{"type":"Point","coordinates":[-73.981947,40.748641]}},{"name":"Firm58","description":"New York Office (Sales)","address1":"","address2":"","zip_code":"","city":"New York","state_code":"NY","country_code":"USA","latitude":40.766734,"longitude":-73.988265,"geopoint":{"type":"Point","coordinates":[-73.988265,40.766734]}},{"name":"Worklight","description":"","address1":"12 West 31st Street","address2":"","zip_code":"10001","city":"New York","state_code":"NY","country_code":"USA","latitude":40.756799,"longitude":-73.976348,"geopoint":{"type":"Point","coordinates":[-73.976348,40.756799]}},{"name":"CPM Braxis","description":"CPM Braxis","address1":"415 Madison Ave","address2":"14th fl","zip_code":"10017","city":"New York","state_code":"NY","country_code":"USA","latitude":40.756799,"longitude":-73.9763479,"geopoint":{"type":"Point","coordinates":[-73.9763479,40.756799]}},{"name":"MediaMath","description":"Head Office","address1":"1440 Broadway","address2":"21st Floor","zip_code":"10018","city":"New York","state_code":"NY","country_code":"USA","latitude":40.756799,"longitude":-73.9763479,"geopoint":{"type":"Point","coordinates":[-73.9763479,40.756799]}},{"name":"Q-go","description":"Q-go USA","address1":"100 Park Avenue","address2":"","zip_code":"NY 10017","city":"New York","state_code":"NY","country_code":"USA","latitude":40.751139,"longitude":-73.978471,"geopoint":{"type":"Point","coordinates":[-73.978471,40.751139]}},{"name":"Burnlounge","description":null,"address1":"304 Hudson St., 7th Floor","address2":null,"zip_code":"10013","city":"New York","state_code":"NY","country_code":"USA","latitude":40.746953,"longitude":-73.993553,"geopoint":{"type":"Point","coordinates":[-73.993553,40.746953]}},{"name":"Vroengard Academy","description":null,"address1":"1745 Broadway","address2":"","zip_code":"10019","city":"New York","state_code":"NY","country_code":"USA","latitude":40.765283,"longitude":-73.982007,"geopoint":{"type":"Point","coordinates":[-73.982007,40.765283]}},{"name":"WPP","description":"","address1":"100 Park Avenue","address2":"","zip_code":"10017-5529","city":"New York","state_code":"NY","country_code":"USA","latitude":40.751513,"longitude":-73.9779465,"geopoint":{"type":"Point","coordinates":[-73.9779465,40.751513]}},{"name":"WPP","description":"","address1":"100 Park Avenue","address2":"","zip_code":"10017-5529","city":"New York","state_code":"NY","country_code":"USA","latitude":40.751513,"longitude":-73.9779465,"geopoint":{"type":"Point","coordinates":[-73.9779465,40.751513]}},{"name":"TasteSpace","description":"","address1":"185 Madison Ave","address2":"Suite 1602","zip_code":"10016","city":"New York","state_code":"NY","country_code":"USA","latitude":40.747819,"longitude":-73.982544,"geopoint":{"type":"Point","coordinates":[-73.982544,40.747819]}},{"name":"Ramp Up Tech","description":"New York Office","address1":"153 West 27th Street","address2":"Suite 300","zip_code":"10001","city":"New York","state_code":"NY","country_code":"USA","latitude":40.746514,"longitude":-73.993035,"geopoint":{"type":"Point","coordinates":[-73.993035,40.746514]}},{"name":"Undertone","description":"NY - Headquarters","address1":"340 Madison","address2":"8th Floor","zip_code":"10178","city":"New York","state_code":"NY","country_code":"USA","latitude":40.7509033,"longitude":-73.9779759,"geopoint":{"type":"Point","coordinates":[-73.9779759,40.7509033]}},{"name":"Vital Juice","description":"","address1":"423 W. 55th Street,","address2":"10th Floor","zip_code":"10019","city":"New York","state_code":"NY","country_code":"USA","latitude":40.767418,"longitude":-73.987951,"geopoint":{"type":"Point","coordinates":[-73.987951,40.767418]}},{"name":"BeliefNetworks","description":"Biz Dev & Sales","address1":"162 Madison Ave.","address2":"","zip_code":"10016","city":"New York","state_code":"NY","country_code":"USA","latitude":40.746944,"longitude":-73.983926,"geopoint":{"type":"Point","coordinates":[-73.983926,40.746944]}},{"name":"Unison Technologies","description":"Headquarters","address1":"424 W 33rd Street, Suite 410","address2":"","zip_code":"10001","city":"New York","state_code":"NY","country_code":"USA","latitude":40.7645772,"longitude":-73.9799007,"geopoint":{"type":"Point","coordinates":[-73.9799007,40.7645772]}},{"name":"Tripology","description":"","address1":"160 Madison Avenue","address2":"6th Floor","zip_code":"10016","city":"New York","state_code":"NY","country_code":"USA","latitude":40.746883,"longitude":-73.983969,"geopoint":{"type":"Point","coordinates":[-73.983969,40.746883]}},{"name":"ContextMedia","description":"","address1":"437 Madison Ave","address2":"","zip_code":"","city":"New York","state_code":"NY","country_code":"USA","latitude":40.757651,"longitude":-73.9752768,"geopoint":{"type":"Point","coordinates":[-73.9752768,40.757651]}},{"name":"The Receivables Exchange","description":"New York Office","address1":"437 Madison Avenue, 28th Floor","address2":"","zip_code":"10022","city":"New York","state_code":"NY","country_code":"USA","latitude":40.757651,"longitude":-73.9752768,"geopoint":{"type":"Point","coordinates":[-73.9752768,40.757651]}},{"name":"Plentitube","description":null,"address1":"108 E. 38th St.","address2":"Suite 1402","zip_code":"10016","city":"New York","state_code":"NY","country_code":"USA","latitude":40.749277,"longitude":-73.978733,"geopoint":{"type":"Point","coordinates":[-73.978733,40.749277]}},{"name":"Secure Fortress","description":"New York","address1":"420 Lexington Ave, Suite 450","address2":"","zip_code":"10170","city":"New York","state_code":"NY","country_code":"USA","latitude":40.752672,"longitude":-73.97593,"geopoint":{"type":"Point","coordinates":[-73.97593,40.752672]}},{"name":"Agoracom","description":"USA Office","address1":"420 Lexington Avenue","address2":"Suite 2620","zip_code":"10170","city":"New York","state_code":"NY","country_code":"USA","latitude":40.752672,"longitude":-73.97593,"geopoint":{"type":"Point","coordinates":[-73.97593,40.752672]}},{"name":"AdoTube","description":"New York Office","address1":"915 Broadway","address2":"Suite 1301","zip_code":"10010","city":"New York","state_code":"NY","country_code":"USA","latitude":40.752672,"longitude":-73.97593,"geopoint":{"type":"Point","coordinates":[-73.97593,40.752672]}},{"name":"Major League Gaming","description":"Corporate Headquarters","address1":"3 Park Avenue","address2":"32nd Floor","zip_code":"10016","city":"New York","state_code":"NY","country_code":"USA","latitude":40.752672,"longitude":-73.97593,"geopoint":{"type":"Point","coordinates":[-73.97593,40.752672]}},{"name":"CyberSynchs","description":"","address1":"44 West 28th street","address2":"8th floor","zip_code":"10001","city":"NYC","state_code":"NY","country_code":"USA","latitude":40.745534,"longitude":-73.990033,"geopoint":{"type":"Point","coordinates":[-73.990033,40.745534]}},{"name":"South Park Studios","description":null,"address1":"1775 Broadway","address2":"","zip_code":"10019","city":"New York","state_code":"NY","country_code":"USA","latitude":40.766332,"longitude":-73.981828,"geopoint":{"type":"Point","coordinates":[-73.981828,40.766332]}},{"name":"Xandros","description":"","address1":"149 Madison Ave","address2":"Suite 302","zip_code":"10016","city":"New York","state_code":"NY","country_code":"USA","latitude":40.746368,"longitude":-73.983972,"geopoint":{"type":"Point","coordinates":[-73.983972,40.746368]}},{"name":"YCD Multimedia","description":"","address1":"104 West 27th Street","address2":"7th Floor","zip_code":"NY 10001","city":"New York","state_code":"NY","country_code":"USA","latitude":40.745454,"longitude":-73.991674,"geopoint":{"type":"Point","coordinates":[-73.991674,40.745454]}},{"name":"Catchafire","description":"","address1":"31 East 32nd Street","address2":"","zip_code":"10016","city":"New York","state_code":null,"country_code":"USA","latitude":40.746417,"longitude":-73.983171,"geopoint":{"type":"Point","coordinates":[-73.983171,40.746417]}},{"name":"Networked Insights","description":"New York Offices","address1":"277 5th Avenue","address2":"6th Floor","zip_code":"10016","city":"New York","state_code":"NY","country_code":"USA","latitude":40.745559,"longitude":-73.986243,"geopoint":{"type":"Point","coordinates":[-73.986243,40.745559]}},{"name":"Tzunami SharePoint migration","description":"","address1":"245 Park Ave.","address2":"39th Floor","zip_code":"10167","city":"New York","state_code":"NY","country_code":"USA","latitude":40.754608,"longitude":-73.974674,"geopoint":{"type":"Point","coordinates":[-73.974674,40.754608]}},{"name":"Commission Junction","description":"New York Office","address1":"370 Lexington Ave.","address2":"Suite 908","zip_code":"10017","city":"New York","state_code":"NY","country_code":"USA","latitude":40.7508577,"longitude":-73.9765095,"geopoint":{"type":"Point","coordinates":[-73.9765095,40.7508577]}},{"name":"TOMOS Software","description":"Headquarters","address1":"360 Lexington Avenue","address2":"","zip_code":"10017","city":"New York","state_code":"NY","country_code":"USA","latitude":40.7504268,"longitude":-73.9768083,"geopoint":{"type":"Point","coordinates":[-73.9768083,40.7504268]}},{"name":"Conductor","description":"Corporate Headquarters","address1":"2 Park Ave","address2":"","zip_code":"10016","city":"New York","state_code":"NY","country_code":"USA","latitude":40.746332,"longitude":-73.982596,"geopoint":{"type":"Point","coordinates":[-73.982596,40.746332]}},{"name":"StyleCaster","description":"","address1":"49 W 27th St Uppr A","address2":"","zip_code":"10001-6936","city":"New York City","state_code":"NY","country_code":"USA","latitude":40.7450497,"longitude":-73.9900984,"geopoint":{"type":"Point","coordinates":[-73.9900984,40.7450497]}},{"name":"Right Media","description":"Right Media LLC","address1":"45 West 18th Street","address2":"6th Floor","zip_code":"10011","city":"New York","state_code":"NY","country_code":"USA","latitude":40.74632,"longitude":-73.982607,"geopoint":{"type":"Point","coordinates":[-73.982607,40.74632]}},{"name":"acerno","description":"aCerno New York","address1":"122 E. 42nd st,","address2":"suite 805","zip_code":"10168","city":"New York","state_code":"NY","country_code":"USA","latitude":40.751363,"longitude":-73.975857,"geopoint":{"type":"Point","coordinates":[-73.975857,40.751363]}},{"name":"Next Jump","description":"Corporate HQ","address1":"261 Fifth Avenue","address2":"8th Floor","zip_code":"10016","city":"New York","state_code":"NY","country_code":"USA","latitude":40.7451545,"longitude":-73.9869549,"geopoint":{"type":"Point","coordinates":[-73.9869549,40.7451545]}},{"name":"Boxee","description":"US Headquarters","address1":"122 West 26th Street","address2":"8th Floor","zip_code":"10001","city":"New York","state_code":"NY","country_code":"USA","latitude":40.745064,"longitude":-73.992637,"geopoint":{"type":"Point","coordinates":[-73.992637,40.745064]}},{"name":"Portero","description":"Manhattan","address1":"275 Madison Ave # 1201","address2":"","zip_code":"10016","city":"New York","state_code":"NY","country_code":"USA","latitude":40.74727,"longitude":-73.9800645,"geopoint":{"type":"Point","coordinates":[-73.9800645,40.74727]}},{"name":"Carbonmade","description":"World Headquarters","address1":"187 Lafayette St.","address2":"4th Floor","zip_code":"10013","city":"New York","state_code":"NY","country_code":"USA","latitude":40.74727,"longitude":-73.9800645,"geopoint":{"type":"Point","coordinates":[-73.9800645,40.74727]}},{"name":"Gilt Groupe","description":"New York Office","address1":"2 Park Ave Fl 4","address2":"","zip_code":"10016-5602","city":"New York","state_code":"NY","country_code":"USA","latitude":40.74727,"longitude":-73.9800645,"geopoint":{"type":"Point","coordinates":[-73.9800645,40.74727]}},{"name":"Dice Holdings","description":"Dice Holdings","address1":"","address2":"","zip_code":"10016","city":"New York","state_code":"NY","country_code":"USA","latitude":40.74727,"longitude":-73.9800645,"geopoint":{"type":"Point","coordinates":[-73.9800645,40.74727]}},{"name":"Willard John Thomas Associates","description":"Headquarters","address1":"14 Wall Street","address2":"","zip_code":"10005","city":"New York","state_code":"NY","country_code":"USA","latitude":40.74727,"longitude":-73.980064,"geopoint":{"type":"Point","coordinates":[-73.980064,40.74727]}},{"name":"RMG Connect","description":"HQ","address1":"466 Lexington Avenue","address2":"","zip_code":"10017","city":"New York","state_code":"NY","country_code":"USA","latitude":40.753772,"longitude":-73.974353,"geopoint":{"type":"Point","coordinates":[-73.974353,40.753772]}},{"name":"Cowrite","description":"Main office","address1":"330 W. 58th","address2":"#9E","zip_code":"10019","city":"New York","state_code":"NY","country_code":"USA","latitude":40.7679235,"longitude":-73.9836019,"geopoint":{"type":"Point","coordinates":[-73.9836019,40.7679235]}},{"name":"Zemoga","description":"New York Office","address1":"56 West 22nd Street","address2":"10th Floor","zip_code":"11217","city":"New York","state_code":"NY","country_code":"USA","latitude":40.744697,"longitude":-73.989947,"geopoint":{"type":"Point","coordinates":[-73.989947,40.744697]}},{"name":"GEN ART","description":"Corporate Headquarters","address1":"627 N. La Peer Drive","address2":"","zip_code":"90069","city":"West Hollywood","state_code":"CA","country_code":"USA","latitude":40.744943,"longitude":-73.993179,"geopoint":{"type":"Point","coordinates":[-73.993179,40.744943]}},{"name":"Zagat","description":"Zagat Survey, LLC","address1":"4 Columbus Circle","address2":"","zip_code":"10019","city":"New York City","state_code":"NY","country_code":"USA","latitude":40.76769,"longitude":-73.982558,"geopoint":{"type":"Point","coordinates":[-73.982558,40.76769]}},{"name":"For Your Imagination","description":"HQ","address1":"22 West 27th Street","address2":"6th Floor","zip_code":"10001","city":"New York","state_code":"NY","country_code":"USA","latitude":40.744594,"longitude":-73.989698,"geopoint":{"type":"Point","coordinates":[-73.989698,40.744594]}},{"name":"Yipit","description":"HQ","address1":"3 W 18th","address2":"2nd Floor","zip_code":"10011","city":"New York","state_code":"NY","country_code":"USA","latitude":40.744618,"longitude":-73.987764,"geopoint":{"type":"Point","coordinates":[-73.987764,40.744618]}},{"name":"IntheGlo","description":"Headquarters","address1":"244 5th Avenue","address2":"Suite 2LP","zip_code":"10001","city":"New York","state_code":"NY","country_code":"USA","latitude":40.744618,"longitude":-73.987764,"geopoint":{"type":"Point","coordinates":[-73.987764,40.744618]}},{"name":"Enversa Companies","description":"New York Office","address1":"622 Third Ave","address2":"11th Floor","zip_code":"10017","city":"NYC","state_code":"NY","country_code":"USA","latitude":40.750179,"longitude":-73.976018,"geopoint":{"type":"Point","coordinates":[-73.976018,40.750179]}},{"name":"Aghreni Technologies","description":"USA Office","address1":"246, Fifth Avenue","address2":"Ste. 301","zip_code":"10001","city":"New York","state_code":"NY","country_code":"USA","latitude":40.744549,"longitude":-73.988071,"geopoint":{"type":"Point","coordinates":[-73.988071,40.744549]}},{"name":"NFL","description":"HQ","address1":"345 Park Ave","address2":"","zip_code":"10054","city":"New York","state_code":"NY","country_code":"USA","latitude":40.7457865,"longitude":-73.9822265,"geopoint":{"type":"Point","coordinates":[-73.9822265,40.7457865]}},{"name":"BBE","description":"","address1":"245 Fifth Avenue","address2":"21st Floor","zip_code":"10016","city":"New York","state_code":"NY","country_code":"USA","latitude":40.7445343,"longitude":-73.9874008,"geopoint":{"type":"Point","coordinates":[-73.9874008,40.7445343]}},{"name":"BeenVerified","description":"","address1":"307 5th Avenue","address2":"16th Floor","zip_code":"10016","city":"New York","state_code":"NY","country_code":"USA","latitude":40.744402,"longitude":-73.987949,"geopoint":{"type":"Point","coordinates":[-73.987949,40.744402]}},{"name":"[x+1]","description":"HQ","address1":"315 Park Avenue South","address2":"12th floor","zip_code":"10010","city":"New York","state_code":"NY","country_code":"USA","latitude":40.7455068,"longitude":-73.982624,"geopoint":{"type":"Point","coordinates":[-73.982624,40.7455068]}},{"name":"[x+1]","description":"HQ","address1":"315 Park Avenue South","address2":"12th floor","zip_code":"10010","city":"New York","state_code":"NY","country_code":"USA","latitude":40.7455068,"longitude":-73.982624,"geopoint":{"type":"Point","coordinates":[-73.982624,40.7455068]}},{"name":"Imaginova","description":"Corporate Offices","address1":"470 Park Avenue South","address2":"","zip_code":"10016","city":"New York","state_code":"NY","country_code":"USA","latitude":40.7454971,"longitude":-73.9826042,"geopoint":{"type":"Point","coordinates":[-73.9826042,40.7454971]}},{"name":"findingDulcinea","description":"","address1":"475 Park Ave. S","address2":"","zip_code":"10016","city":"New York","state_code":"NY","country_code":"USA","latitude":40.7455579,"longitude":-73.9823449,"geopoint":{"type":"Point","coordinates":[-73.9823449,40.7455579]}},{"name":"ZepFrog Corp","description":"","address1":"15 West 26th Street","address2":"","zip_code":"10010","city":"New York","state_code":"NY","country_code":"USA","latitude":40.744201,"longitude":-73.989505,"geopoint":{"type":"Point","coordinates":[-73.989505,40.744201]}},{"name":"Mimeo","description":null,"address1":"460 Park Avenue South","address2":"","zip_code":"10016","city":"New York","state_code":"NY","country_code":"USA","latitude":40.745216,"longitude":-73.982807,"geopoint":{"type":"Point","coordinates":[-73.982807,40.745216]}},{"name":"Cognitive Match","description":"New York (HQ)","address1":"475 Park Ave S","address2":"","zip_code":"10016","city":"New York","state_code":"NY","country_code":"USA","latitude":40.7454098,"longitude":-73.9822211,"geopoint":{"type":"Point","coordinates":[-73.9822211,40.7454098]}},{"name":"stickK","description":null,"address1":"39 East 30th Street","address2":"","zip_code":"10016","city":"New York","state_code":"NY","country_code":"USA","latitude":40.744837,"longitude":-73.983843,"geopoint":{"type":"Point","coordinates":[-73.983843,40.744837]}},{"name":"Urgent Career","description":"Corporate Headquarters","address1":"450 Park Ave South","address2":"9th Floor","zip_code":"10016","city":"New York","state_code":"NY","country_code":"USA","latitude":40.745003,"longitude":-73.983229,"geopoint":{"type":"Point","coordinates":[-73.983229,40.745003]}},{"name":"Sparkpr","description":"New York","address1":"30 West 26th Street","address2":"3rd Floor","zip_code":"10010","city":"New York","state_code":"NY","country_code":"USA","latitude":40.7440142,"longitude":-73.989586,"geopoint":{"type":"Point","coordinates":[-73.989586,40.7440142]}},{"name":"Gameloft","description":"New York Office","address1":"45 W. 25th Street","address2":"9th Floor","zip_code":"10010","city":"New York","state_code":"NY","country_code":"USA","latitude":40.744034,"longitude":-73.991034,"geopoint":{"type":"Point","coordinates":[-73.991034,40.744034]}},{"name":"Exent","description":"Sales & Marketing","address1":"632 W. 28th St.","address2":"8th Floor","zip_code":"10001","city":"New York","state_code":"NY","country_code":"USA","latitude":40.7523796,"longitude":-74.005568,"geopoint":{"type":"Point","coordinates":[-74.005568,40.7523796]}},{"name":"Rhxo Technology Group","description":"Rhxo Headquarter","address1":"730 Fifth Ave.","address2":"The Crown Building, Suite 916","zip_code":"10019","city":"New York","state_code":"NY","country_code":"USA","latitude":40.762897,"longitude":-73.974714,"geopoint":{"type":"Point","coordinates":[-73.974714,40.762897]}},{"name":"Inform Technologies","description":"New York office","address1":"44 East 30th Street","address2":"11th Floor","zip_code":"10016","city":"New York","state_code":"NY","country_code":"USA","latitude":40.744639,"longitude":-73.983963,"geopoint":{"type":"Point","coordinates":[-73.983963,40.744639]}},{"name":"Ticketpredator","description":"","address1":"1133 Broadway","address2":"Suite 706","zip_code":"10010","city":"New York","state_code":"NY","country_code":"USA","latitude":40.7438356,"longitude":-73.9890149,"geopoint":{"type":"Point","coordinates":[-73.9890149,40.7438356]}},{"name":"iPharro Media","description":"US Office","address1":"1133 Broadway","address2":"Suite 706","zip_code":"10010","city":"New York","state_code":"NY","country_code":"USA","latitude":40.7438356,"longitude":-73.9890149,"geopoint":{"type":"Point","coordinates":[-73.9890149,40.7438356]}},{"name":"muzu tv","description":"New York Office","address1":"345 Park Avenue","address2":"17th Floor","zip_code":"10154-0037","city":"New York","state_code":"NY","country_code":"USA","latitude":40.757716,"longitude":-73.972321,"geopoint":{"type":"Point","coordinates":[-73.972321,40.757716]}},{"name":"Bristol-Myers Squibb","description":"HQ","address1":"345 Park Avenue","address2":"","zip_code":"10154","city":"New York","state_code":"NY","country_code":"USA","latitude":40.757716,"longitude":-73.972321,"geopoint":{"type":"Point","coordinates":[-73.972321,40.757716]}},{"name":"Saavn","description":"Corporate Headquarters","address1":"","address2":"","zip_code":"10016","city":"New York","state_code":"NY","country_code":"USA","latitude":40.743877,"longitude":-73.98618,"geopoint":{"type":"Point","coordinates":[-73.98618,40.743877]}},{"name":"[212]Media","description":"","address1":"72 Madison Avenue","address2":"","zip_code":"","city":"New York","state_code":"NY","country_code":"USA","latitude":40.743877,"longitude":-73.98618,"geopoint":{"type":"Point","coordinates":[-73.98618,40.743877]}},{"name":"FremantleMedia Ventures","description":"New York Office","address1":"28 East 28th Street","address2":"9th Floor","zip_code":"10016","city":"New York","state_code":"NY","country_code":"USA","latitude":40.7439449,"longitude":-73.9855424,"geopoint":{"type":"Point","coordinates":[-73.9855424,40.7439449]}},{"name":"Bluewolf","description":"Worldwide Headquarters","address1":"11 East 26th Street","address2":"21st Floor","zip_code":"10010","city":"New York","state_code":"NY","country_code":"USA","latitude":40.743616,"longitude":-73.9880796,"geopoint":{"type":"Point","coordinates":[-73.9880796,40.743616]}},{"name":"Milabra","description":"","address1":"220 Fifth Ave.","address2":"20th floor","zip_code":"10001","city":"New York","state_code":"NY","country_code":"USA","latitude":40.743616,"longitude":-73.9880796,"geopoint":{"type":"Point","coordinates":[-73.9880796,40.743616]}},{"name":"WeShow","description":null,"address1":null,"address2":null,"zip_code":"10017","city":"New York","state_code":"NY","country_code":"USA","latitude":40.752516,"longitude":-73.973072,"geopoint":{"type":"Point","coordinates":[-73.973072,40.752516]}},{"name":"Interpolls","description":"Eastern Region","address1":"747 Third Ave.","address2":"Suite 25A","zip_code":"10017","city":"New York","state_code":"NY","country_code":"USA","latitude":40.7534549,"longitude":-73.9724886,"geopoint":{"type":"Point","coordinates":[-73.9724886,40.7534549]}},{"name":"Arc90","description":"Office","address1":"747 3rd Ave","address2":"30th Floor","zip_code":"10017","city":"New York City","state_code":"NY","country_code":"USA","latitude":40.7534549,"longitude":-73.9724886,"geopoint":{"type":"Point","coordinates":[-73.9724886,40.7534549]}},{"name":"myJambi","description":"","address1":"37 East 28th Street","address2":"Suite 201","zip_code":"10016","city":"New York","state_code":"NY","country_code":"USA","latitude":40.74385,"longitude":-73.98458,"geopoint":{"type":"Point","coordinates":[-73.98458,40.74385]}},{"name":"myJambi","description":"","address1":"37 East 28th Street","address2":"Suite 201","zip_code":"10016","city":"New York","state_code":"NY","country_code":"USA","latitude":40.74385,"longitude":-73.98458,"geopoint":{"type":"Point","coordinates":[-73.98458,40.74385]}},{"name":"Lolz","description":"New York","address1":"119 W. 23rd St","address2":"Suite 508","zip_code":"10011","city":"New York","state_code":"NY","country_code":"USA","latitude":40.743563,"longitude":-73.993274,"geopoint":{"type":"Point","coordinates":[-73.993274,40.743563]}},{"name":"Subway Crush","description":null,"address1":"119 W. 23rd St.","address2":"Suite 508","zip_code":"10011","city":"New York","state_code":"NY","country_code":"USA","latitude":40.743563,"longitude":-73.993274,"geopoint":{"type":"Point","coordinates":[-73.993274,40.743563]}},{"name":"Bandsintown","description":"New York Headquarters","address1":"215 Lexington Ave","address2":"","zip_code":"10016","city":"New York","state_code":"NY","country_code":"USA","latitude":40.745337,"longitude":-73.980128,"geopoint":{"type":"Point","coordinates":[-73.980128,40.745337]}},{"name":"SEO Expert","description":"Headquarters","address1":"410 Park Avenue","address2":"15th Floor","zip_code":"10022","city":"New York","state_code":"NY","country_code":"USA","latitude":40.760283,"longitude":-73.972262,"geopoint":{"type":"Point","coordinates":[-73.972262,40.760283]}},{"name":"Aditall","description":"","address1":"27 W. 24th St.","address2":"","zip_code":"10010","city":"New York","state_code":"NY","country_code":"USA","latitude":40.743165,"longitude":-73.990853,"geopoint":{"type":"Point","coordinates":[-73.990853,40.743165]}},{"name":"Why Hasn't He?","description":"New York City","address1":"601 W. 57th Street","address2":"","zip_code":"10019","city":"New York City","state_code":"NY","country_code":"USA","latitude":40.7703479,"longitude":-73.9914834,"geopoint":{"type":"Point","coordinates":[-73.9914834,40.7703479]}},{"name":"Hanger Network In-Home Media","description":"","address1":"1841 Broadway","address2":"3rd Floor","zip_code":"10023","city":"New York","state_code":"NY","country_code":"USA","latitude":40.769375,"longitude":-73.982635,"geopoint":{"type":"Point","coordinates":[-73.982635,40.769375]}},{"name":"Vringo","description":"HQ","address1":"780 Third Avenue","address2":"Fifteenth Floor","zip_code":"10017","city":"New York","state_code":"NY","country_code":"USA","latitude":40.7550005,"longitude":-73.9717364,"geopoint":{"type":"Point","coordinates":[-73.9717364,40.7550005]}},{"name":"WiNetworks","description":"HQ","address1":"555 West 57th Street, Suite 1326","address2":"","zip_code":"10019","city":"New York","state_code":"NY","country_code":"USA","latitude":40.770437,"longitude":-73.990426,"geopoint":{"type":"Point","coordinates":[-73.990426,40.770437]}},{"name":"Advaliant","description":"Headquarters","address1":"404 Park Ave South","address2":"2nd floor","zip_code":"10016","city":"New York","state_code":"NY","country_code":"USA","latitude":40.743662,"longitude":-73.984268,"geopoint":{"type":"Point","coordinates":[-73.984268,40.743662]}},{"name":"Advaliant","description":"New York Headquarters","address1":"404 Park Ave South","address2":"2nd floor","zip_code":"10016","city":"New York","state_code":"NY","country_code":"USA","latitude":40.743662,"longitude":-73.984268,"geopoint":{"type":"Point","coordinates":[-73.984268,40.743662]}},{"name":"MediaTrust","description":"","address1":"404 Park Avenue South,","address2":"2nd floor","zip_code":"10016","city":"New York","state_code":"NY","country_code":"USA","latitude":40.743662,"longitude":-73.984268,"geopoint":{"type":"Point","coordinates":[-73.984268,40.743662]}},{"name":"Davidville","description":"Corporate Headquarters","address1":"419 Park Ave. South","address2":"Suite 807","zip_code":"10016","city":"New York","state_code":"NY","country_code":"USA","latitude":40.743808,"longitude":-73.983626,"geopoint":{"type":"Point","coordinates":[-73.983626,40.743808]}},{"name":"Tumblr","description":null,"address1":"419 Park Ave. South, Suite 807","address2":null,"zip_code":"10016","city":"New York","state_code":"NY","country_code":"USA","latitude":40.743808,"longitude":-73.983626,"geopoint":{"type":"Point","coordinates":[-73.983626,40.743808]}},{"name":"Next New Networks","description":"","address1":"22 W 21st St","address2":"10th Floor","zip_code":"10010","city":"New York","state_code":"NY","country_code":"USA","latitude":40.743808,"longitude":-73.983626,"geopoint":{"type":"Point","coordinates":[-73.983626,40.743808]}},{"name":"Civolution","description":"New York Office","address1":"601 W. 26th Street \u00e2\u20ac\u201c Suite 1646","address2":"","zip_code":"10001","city":"New York","state_code":"NY","country_code":"USA","latitude":40.7510131,"longitude":-74.0061454,"geopoint":{"type":"Point","coordinates":[-74.0061454,40.7510131]}},{"name":"Minyanville","description":"Corporate Headquarters","address1":"257 Park Ave South","address2":"","zip_code":"10010","city":"New York","state_code":"NY","country_code":"USA","latitude":40.755635,"longitude":-73.971509,"geopoint":{"type":"Point","coordinates":[-73.971509,40.755635]}},{"name":"Synthesio","description":"US Office","address1":"116 West 23rd St","address2":"","zip_code":"10011","city":"New York","state_code":"NY","country_code":"USA","latitude":40.7431836,"longitude":-73.9935011,"geopoint":{"type":"Point","coordinates":[-73.9935011,40.7431836]}},{"name":"8coupons","description":"","address1":"","address2":"","zip_code":"10011","city":"New York","state_code":"NY","country_code":"USA","latitude":40.7431477,"longitude":-73.9934288,"geopoint":{"type":"Point","coordinates":[-73.9934288,40.7431477]}},{"name":"iPerceptions","description":"","address1":"575 Madison Avenue","address2":"Suite 1006","zip_code":"10022-2511","city":"New York","state_code":"NY","country_code":"USA","latitude":40.7619759,"longitude":-73.9725773,"geopoint":{"type":"Point","coordinates":[-73.9725773,40.7619759]}},{"name":"Integreon","description":"","address1":"219 East 44th Street","address2":"5th Floor","zip_code":"10018","city":"","state_code":"NY","country_code":"USA","latitude":40.751804,"longitude":-73.972365,"geopoint":{"type":"Point","coordinates":[-73.972365,40.751804]}},{"name":"Datum Legal","description":"","address1":"117 west 7th Street","address2":"1 Floor","zip_code":"10017","city":"New York","state_code":"NY","country_code":"USA","latitude":40.751804,"longitude":-73.972365,"geopoint":{"type":"Point","coordinates":[-73.972365,40.751804]}},{"name":"Travelzoo","description":"","address1":"590 Madison Avenue","address2":"37th Floor","zip_code":"10022","city":"New York","state_code":"NY","country_code":"USA","latitude":40.762251,"longitude":-73.9723688,"geopoint":{"type":"Point","coordinates":[-73.9723688,40.762251]}},{"name":"Corvil","description":"New York","address1":"777 Third Ave.","address2":"Suite 21B","zip_code":"10017","city":"New York","state_code":"NY","country_code":"USA","latitude":40.7547187,"longitude":-73.9711073,"geopoint":{"type":"Point","coordinates":[-73.9711073,40.7547187]}},{"name":"TRAFFIQ","description":"Headquarters","address1":"462 7th Avenue","address2":"21st Floor","zip_code":"10018","city":"New York","state_code":"NY","country_code":"USA","latitude":40.7429533,"longitude":-73.9844611,"geopoint":{"type":"Point","coordinates":[-73.9844611,40.7429533]}},{"name":"Yodle","description":"New York Office (HQ)","address1":"50 West 23rd Street","address2":"Suite 401","zip_code":"10010","city":"New York","state_code":"NY","country_code":"USA","latitude":40.742459,"longitude":-73.9918126,"geopoint":{"type":"Point","coordinates":[-73.9918126,40.742459]}},{"name":"KIT digital","description":"New York Office","address1":"26 W 17th Street","address2":"","zip_code":"10011","city":"New York","state_code":"NY","country_code":"USA","latitude":40.751816,"longitude":-73.971655,"geopoint":{"type":"Point","coordinates":[-73.971655,40.751816]}},{"name":"iPayStation","description":"New York Office","address1":"825 Third Avenue","address2":"6th Floor","zip_code":"10022","city":"New York","state_code":"NY","country_code":"USA","latitude":40.7564786,"longitude":-73.9702711,"geopoint":{"type":"Point","coordinates":[-73.9702711,40.7564786]}},{"name":"LetMeGo","description":"General Assembly","address1":"902 Broadway","address2":"4th Floor","zip_code":"10010","city":"New York","state_code":"NY","country_code":"USA","latitude":40.7421061,"longitude":-73.9909181,"geopoint":{"type":"Point","coordinates":[-73.9909181,40.7421061]}},{"name":"Generate","description":"New York","address1":"845 3rd Avenue","address2":"6th Floor, Suite 652","zip_code":"10022","city":"New York","state_code":"NY","country_code":"USA","latitude":40.7570972,"longitude":-73.969821,"geopoint":{"type":"Point","coordinates":[-73.969821,40.7570972]}},{"name":"McKinley Marketing Partners","description":"Northeast Office","address1":"445 Park Avenue","address2":"9th. floor","zip_code":"10022","city":"New York","state_code":"NY","country_code":"USA","latitude":40.7615818,"longitude":-73.970624,"geopoint":{"type":"Point","coordinates":[-73.970624,40.7615818]}},{"name":"Americanlisted","description":"Americanlisted","address1":"445 Park Avenue","address2":"","zip_code":"10022","city":"New York","state_code":"NY","country_code":"USA","latitude":40.7615818,"longitude":-73.970624,"geopoint":{"type":"Point","coordinates":[-73.970624,40.7615818]}},{"name":"Garlik","description":"Garlik US Office","address1":"445 Park Avenue","address2":"","zip_code":"10022","city":"New York","state_code":"NY","country_code":"USA","latitude":40.7615818,"longitude":-73.970624,"geopoint":{"type":"Point","coordinates":[-73.970624,40.7615818]}},{"name":"InnerRewards","description":"East Coast","address1":"16 West 23rd","address2":"Floor 4","zip_code":"10010","city":"New York","state_code":"NY","country_code":"USA","latitude":40.741594,"longitude":-73.990468,"geopoint":{"type":"Point","coordinates":[-73.990468,40.741594]}},{"name":"InnerRewards","description":"East Coast","address1":"16 West 23rd","address2":"Floor 4","zip_code":"10010","city":"New York","state_code":"NY","country_code":"USA","latitude":40.741594,"longitude":-73.990468,"geopoint":{"type":"Point","coordinates":[-73.990468,40.741594]}},{"name":"HitTail","description":null,"address1":"7 W 22nd Street","address2":"","zip_code":"10010","city":"New York","state_code":"NY","country_code":"USA","latitude":40.741356,"longitude":-73.991222,"geopoint":{"type":"Point","coordinates":[-73.991222,40.741356]}},{"name":"Clickable","description":"New York Office","address1":"7 West 22nd Street","address2":"7th Floor","zip_code":"10010","city":"New York","state_code":"NY","country_code":"USA","latitude":40.7413559,"longitude":-73.9912208,"geopoint":{"type":"Point","coordinates":[-73.9912208,40.7413559]}},{"name":"Hello Travel","description":"HQ","address1":"14 E 60th St","address2":"Ste 503","zip_code":"10022-7139","city":"New York","state_code":"NY","country_code":"USA","latitude":40.7642348,"longitude":-73.971697,"geopoint":{"type":"Point","coordinates":[-73.971697,40.7642348]}},{"name":"eXelate","description":"Headquarters","address1":"7 West 22nd Street","address2":"9th Floor","zip_code":"10010","city":"New York","state_code":"NY","country_code":"USA","latitude":40.741266,"longitude":-73.990753,"geopoint":{"type":"Point","coordinates":[-73.990753,40.741266]}},{"name":"Panjiva","description":"New York Office","address1":"20 West 22nd Street","address2":"Suite 801","zip_code":"10010","city":"NYC","state_code":"NY","country_code":"USA","latitude":40.741276,"longitude":-73.991561,"geopoint":{"type":"Point","coordinates":[-73.991561,40.741276]}},{"name":"Panjiva","description":"New York Office","address1":"20 West 22nd Street","address2":"Suite 801","zip_code":"10010","city":"NYC","state_code":"NY","country_code":"USA","latitude":40.741276,"longitude":-73.991561,"geopoint":{"type":"Point","coordinates":[-73.991561,40.741276]}},{"name":"Bango","description":"USA","address1":"20 West 22nd Street","address2":"Suite 906","zip_code":"10010","city":"New York","state_code":"NY","country_code":"USA","latitude":40.7412488,"longitude":-73.9912518,"geopoint":{"type":"Point","coordinates":[-73.9912518,40.7412488]}},{"name":"Transit Treasure","description":"Headquarters","address1":"311 East 38th Street","address2":"Suite 19B","zip_code":"10016","city":"New York","state_code":"NY","country_code":"USA","latitude":40.74724,"longitude":-73.973243,"geopoint":{"type":"Point","coordinates":[-73.973243,40.74724]}},{"name":"Hunch","description":"","address1":"54 West 21st. Street...","address2":"","zip_code":"10010","city":"New York","state_code":"NY","country_code":"USA","latitude":40.741179,"longitude":-73.993182,"geopoint":{"type":"Point","coordinates":[-73.993182,40.741179]}},{"name":"Buzzr","description":"Buzzr.com","address1":"38 W 21st St","address2":"3rd Floor","zip_code":"10010","city":"New York","state_code":"NY","country_code":"USA","latitude":40.740941,"longitude":-73.992609,"geopoint":{"type":"Point","coordinates":[-73.992609,40.740941]}},{"name":"Centro","description":"East","address1":"22 West 21st Street","address2":"Floor 7","zip_code":"10010","city":"New York","state_code":"NY","country_code":"USA","latitude":40.7408753,"longitude":-73.9920174,"geopoint":{"type":"Point","coordinates":[-73.9920174,40.7408753]}},{"name":"E*Trade","description":null,"address1":"135 East 57th Street","address2":"","zip_code":"10022","city":"New York","state_code":"NY","country_code":"USA","latitude":40.76096,"longitude":-73.969237,"geopoint":{"type":"Point","coordinates":[-73.969237,40.76096]}},{"name":"Infor","description":"HQ","address1":"641 Avenue of the Americas","address2":"","zip_code":"10011","city":"New York","state_code":"NY","country_code":"USA","latitude":40.740976,"longitude":-73.9947229,"geopoint":{"type":"Point","coordinates":[-73.9947229,40.740976]}},{"name":"NOM","description":"New York Headquarters","address1":"964 Flushing Ave","address2":"First Floor","zip_code":"11206","city":"Brooklyn","state_code":"NY","country_code":"USA","latitude":40.740672,"longitude":-73.992632,"geopoint":{"type":"Point","coordinates":[-73.992632,40.740672]}},{"name":"Gust","description":"Main Office","address1":"158 West 29th Street","address2":"11th Floor","zip_code":"10001","city":"New York","state_code":"NY","country_code":"USA","latitude":40.740512,"longitude":-73.987794,"geopoint":{"type":"Point","coordinates":[-73.987794,40.740512]}},{"name":"Gust","description":"Main Office","address1":"158 West 29th Street","address2":"11th Floor","zip_code":"10001","city":"New York","state_code":"NY","country_code":"USA","latitude":40.740512,"longitude":-73.987794,"geopoint":{"type":"Point","coordinates":[-73.987794,40.740512]}},{"name":"Voice123","description":"Headquarters","address1":"902 Broadway","address2":"","zip_code":"10010","city":"New York","state_code":"NY","country_code":"USA","latitude":40.740512,"longitude":-73.987794,"geopoint":{"type":"Point","coordinates":[-73.987794,40.740512]}},{"name":"Comixology","description":"Main Office","address1":"159 West 25th Street 9th floor","address2":"","zip_code":"10010-4436","city":"New York","state_code":"NY","country_code":"USA","latitude":40.740512,"longitude":-73.987794,"geopoint":{"type":"Point","coordinates":[-73.987794,40.740512]}},{"name":"PerformLine","description":"Headquarters","address1":"30 West Park Place","address2":"","zip_code":"07960","city":"Morristown","state_code":"NJ","country_code":"USA","latitude":40.740512,"longitude":-73.987794,"geopoint":{"type":"Point","coordinates":[-73.987794,40.740512]}},{"name":"Flow TV","description":"","address1":"1790 Broadway Avenue","address2":"","zip_code":"10019","city":"New York","state_code":"NY","country_code":"USA","latitude":40.741557,"longitude":-73.981829,"geopoint":{"type":"Point","coordinates":[-73.981829,40.741557]}},{"name":"SimulScribe","description":null,"address1":"110 East 59th Street","address2":"","zip_code":"10022","city":"New York","state_code":"NY","country_code":"USA","latitude":40.762673,"longitude":-73.969296,"geopoint":{"type":"Point","coordinates":[-73.969296,40.762673]}},{"name":"SelectMinds","description":null,"address1":"149 Fifth Avenue","address2":null,"zip_code":"10010","city":"New York","state_code":"NY","country_code":"USA","latitude":40.740251,"longitude":-73.990004,"geopoint":{"type":"Point","coordinates":[-73.990004,40.740251]}},{"name":"ShopWiki","description":"","address1":"17 W 18th St","address2":"8th Floor","zip_code":"10011","city":"New York","state_code":"NY","country_code":"USA","latitude":40.740441,"longitude":-73.993376,"geopoint":{"type":"Point","coordinates":[-73.993376,40.740441]}},{"name":"ShopWiki","description":"","address1":"17 W 18th St","address2":"8th Floor","zip_code":"10011","city":"New York","state_code":"NY","country_code":"USA","latitude":40.740441,"longitude":-73.993376,"geopoint":{"type":"Point","coordinates":[-73.993376,40.740441]}},{"name":"The Company Database","description":"Headquarters","address1":"667 Madison Avenue","address2":"","zip_code":"10065","city":"New York","state_code":"NY","country_code":"USA","latitude":40.764481,"longitude":-73.970266,"geopoint":{"type":"Point","coordinates":[-73.970266,40.764481]}},{"name":"BlueKai","description":"New York Office","address1":"145 E 57th Street Floor 6","address2":"","zip_code":"10022","city":"New York","state_code":"NY","country_code":"USA","latitude":40.760955,"longitude":-73.968441,"geopoint":{"type":"Point","coordinates":[-73.968441,40.760955]}},{"name":"Empressr","description":null,"address1":"36 West 20th st","address2":"","zip_code":"10011","city":"New York","state_code":"NY","country_code":"USA","latitude":40.740337,"longitude":-73.993127,"geopoint":{"type":"Point","coordinates":[-73.993127,40.740337]}},{"name":"FeedBackFX","description":null,"address1":"303 Park Avenue South","address2":"Suite 1029","zip_code":"10010","city":"New York","state_code":"NY","country_code":"USA","latitude":40.740348,"longitude":-73.985777,"geopoint":{"type":"Point","coordinates":[-73.985777,40.740348]}},{"name":"Return Path","description":"HQ","address1":"304 Park Ave. South","address2":"7th Floor","zip_code":"10010","city":"New York","state_code":"NY","country_code":"USA","latitude":40.740207,"longitude":-73.987002,"geopoint":{"type":"Point","coordinates":[-73.987002,40.740207]}},{"name":"Mashable","description":"Mashable","address1":"304 Park Ave South","address2":"3rd Floor","zip_code":"10010-3646","city":"New York","state_code":"NY","country_code":"USA","latitude":40.7401544,"longitude":-73.9867417,"geopoint":{"type":"Point","coordinates":[-73.9867417,40.7401544]}},{"name":"Breakaway Communications","description":"New York office","address1":"156 5th Avenue","address2":"Suite 1119#","zip_code":"NY 10010","city":"New York","state_code":"NY","country_code":"USA","latitude":40.73998,"longitude":-73.9907472,"geopoint":{"type":"Point","coordinates":[-73.9907472,40.73998]}},{"name":"BeliefNet","description":null,"address1":"115 E 23rd Street","address2":null,"zip_code":"10010","city":"New York","state_code":"NY","country_code":"USA","latitude":40.740231,"longitude":-73.985433,"geopoint":{"type":"Point","coordinates":[-73.985433,40.740231]}},{"name":"Dotmenu","description":"HQ","address1":"11 Broadway","address2":"16th Floor","zip_code":"10004","city":"New York","state_code":"NY","country_code":"USA","latitude":40.740162,"longitude":-73.993367,"geopoint":{"type":"Point","coordinates":[-73.993367,40.740162]}},{"name":"YellowSpaces","description":"Corporate Office","address1":"915 Broadway","address2":"Suite 1210","zip_code":"10010","city":"New York","state_code":"NY","country_code":"USA","latitude":40.739867,"longitude":-73.990024,"geopoint":{"type":"Point","coordinates":[-73.990024,40.739867]}},{"name":"YellowSpaces","description":"Corporate Office","address1":"915 Broadway","address2":"Suite 1210","zip_code":"10010","city":"New York","state_code":"NY","country_code":"USA","latitude":40.739867,"longitude":-73.990024,"geopoint":{"type":"Point","coordinates":[-73.990024,40.739867]}},{"name":"Modelinia","description":"","address1":"915 Broadway,","address2":"20th Floor","zip_code":"10010","city":"New York","state_code":"NY","country_code":"USA","latitude":40.739867,"longitude":-73.990024,"geopoint":{"type":"Point","coordinates":[-73.990024,40.739867]}},{"name":"RGA Advisors, LLC","description":"Corporate Address","address1":"192 Lexington Avenue","address2":"Second Floor","zip_code":"10016","city":"New York","state_code":"NY","country_code":"USA","latitude":40.740145,"longitude":-73.985207,"geopoint":{"type":"Point","coordinates":[-73.985207,40.740145]}},{"name":"Behance","description":"","address1":"","address2":"","zip_code":"10012","city":"New York","state_code":"NY","country_code":"USA","latitude":40.74406,"longitude":-74.004592,"geopoint":{"type":"Point","coordinates":[-74.004592,40.74406]}},{"name":"Cellufun","description":"Worldwide HQ","address1":"33 West 19th Street","address2":"Suite 329","zip_code":"10011","city":"New York","state_code":"NY","country_code":"USA","latitude":40.73993,"longitude":-73.9930489,"geopoint":{"type":"Point","coordinates":[-73.9930489,40.73993]}},{"name":"Samepoint","description":"Sales and Biz Dev Office","address1":"245 West 17th St.","address2":"4th Fl.","zip_code":"10011","city":"New York","state_code":"NY","country_code":"USA","latitude":40.741441,"longitude":-73.999675,"geopoint":{"type":"Point","coordinates":[-73.999675,40.741441]}},{"name":"Samepoint","description":"Sales and Biz Dev Office","address1":"245 West 17th St.","address2":"4th Fl.","zip_code":"10011","city":"New York","state_code":"NY","country_code":"USA","latitude":40.741441,"longitude":-73.999675,"geopoint":{"type":"Point","coordinates":[-73.999675,40.741441]}},{"name":"BrightTALK","description":"New York Office","address1":"1140 Avenue of the Americas","address2":"9th Floor","zip_code":"10036","city":"New York","state_code":"NY","country_code":"USA","latitude":40.7398335,"longitude":-73.9931582,"geopoint":{"type":"Point","coordinates":[-73.9931582,40.7398335]}},{"name":"ScanScout","description":"New York Office","address1":"450 Seventh Ave, Ste 209","address2":"","zip_code":"10011","city":"New York","state_code":"NY","country_code":"USA","latitude":40.739833,"longitude":-73.993158,"geopoint":{"type":"Point","coordinates":[-73.993158,40.739833]}},{"name":"Phreesia","description":null,"address1":"110 E. 23rd Street","address2":"4th Floor","zip_code":"10010","city":"New York","state_code":"NY","country_code":"USA","latitude":40.739794,"longitude":-73.985878,"geopoint":{"type":"Point","coordinates":[-73.985878,40.739794]}},{"name":"FanFeedr","description":"HQ","address1":"22 W 19th.","address2":"9th Floor c\/o Proclivity Systems","zip_code":"10011","city":"NEW YORK","state_code":"NY","country_code":"USA","latitude":40.7395876,"longitude":-73.9928423,"geopoint":{"type":"Point","coordinates":[-73.9928423,40.7395876]}},{"name":"Homethinking","description":"","address1":"PO Box 4668 #9550","address2":"","zip_code":"10163","city":"New York","state_code":"NY","country_code":"USA","latitude":40.750567,"longitude":-73.968145,"geopoint":{"type":"Point","coordinates":[-73.968145,40.750567]}},{"name":"FoxyMelody","description":null,"address1":"270 W 17th St.","address2":"#6F","zip_code":"10011","city":"New York","state_code":"NY","country_code":"USA","latitude":40.74149,"longitude":-74.000709,"geopoint":{"type":"Point","coordinates":[-74.000709,40.74149]}},{"name":"HealthiNation","description":"HealthiNation","address1":"35 East 21st Street","address2":"Suite 6E","zip_code":"10010","city":"New York","state_code":"NY","country_code":"USA","latitude":40.739341,"longitude":-73.988357,"geopoint":{"type":"Point","coordinates":[-73.988357,40.739341]}},{"name":"HeadStrong Brain Gym","description":null,"address1":"","address2":"","zip_code":"12572","city":"New York","state_code":"NY","country_code":"USA","latitude":40.75033,"longitude":-73.968173,"geopoint":{"type":"Point","coordinates":[-73.968173,40.75033]}},{"name":"HD Cloud","description":"Diversion Media","address1":"900 Broadway, Suite 900","address2":"","zip_code":"10003","city":"New York","state_code":"NY","country_code":"USA","latitude":40.7391853,"longitude":-73.9897456,"geopoint":{"type":"Point","coordinates":[-73.9897456,40.7391853]}},{"name":"Business Insider","description":"","address1":"257 Park Ave South","address2":"","zip_code":"10010","city":"New York","state_code":"NY","country_code":"USA","latitude":40.73906,"longitude":-73.990911,"geopoint":{"type":"Point","coordinates":[-73.990911,40.73906]}},{"name":"Web Foundation","description":"","address1":"31 West 18Th St,","address2":"Suite 801","zip_code":"10011","city":"New York","state_code":"NY","country_code":"USA","latitude":40.7391656,"longitude":-73.9934067,"geopoint":{"type":"Point","coordinates":[-73.9934067,40.7391656]}},{"name":"Vimeo","description":"","address1":"555 W 18th St","address2":"","zip_code":"10011-2822","city":"New York","state_code":"NY","country_code":"USA","latitude":40.7453721,"longitude":-74.0078293,"geopoint":{"type":"Point","coordinates":[-74.0078293,40.7453721]}},{"name":"IAC","description":"HQ","address1":"555 West 18th Street","address2":"","zip_code":"10011","city":"New York","state_code":"NY","country_code":"USA","latitude":40.745172,"longitude":-74.007646,"geopoint":{"type":"Point","coordinates":[-74.007646,40.745172]}},{"name":"Proclivity Systems","description":"Headquarters","address1":"22 W 19th Street","address2":"9th floor","zip_code":"10011","city":"New York","state_code":"NY","country_code":"USA","latitude":40.738954,"longitude":-73.992,"geopoint":{"type":"Point","coordinates":[-73.992,40.738954]}},{"name":"NOLOH","description":"Main Office","address1":"767 Lexington Ave","address2":"","zip_code":"10065","city":"New York","state_code":"NY","country_code":"USA","latitude":40.762975,"longitude":-73.9674,"geopoint":{"type":"Point","coordinates":[-73.9674,40.762975]}},{"name":"DoubleClick","description":"","address1":"76 Ninth Avenue","address2":"4th Floor","zip_code":"10011","city":"New York","state_code":"NY","country_code":"USA","latitude":40.741089,"longitude":-74.001526,"geopoint":{"type":"Point","coordinates":[-74.001526,40.741089]}},{"name":"WebMD","description":"HQ","address1":"111 8th Ave","address2":"7th Floor","zip_code":"10011","city":"New York","state_code":"NY","country_code":"USA","latitude":40.7410886,"longitude":-74.0015261,"geopoint":{"type":"Point","coordinates":[-74.0015261,40.7410886]}},{"name":"ABC News Online","description":"ABC News","address1":"77 W. 66 St.","address2":"","zip_code":"10023","city":"New York","state_code":"NY","country_code":"USA","latitude":40.77353,"longitude":-73.980533,"geopoint":{"type":"Point","coordinates":[-73.980533,40.77353]}},{"name":"Film Annex","description":"New York Office","address1":"","address2":"","zip_code":"10011","city":"New York","state_code":"NY","country_code":"USA","latitude":40.7464969,"longitude":-74.0094471,"geopoint":{"type":"Point","coordinates":[-74.0094471,40.7464969]}},{"name":"Jobulous","description":"New York","address1":"","address2":"","zip_code":"10011","city":"New York","state_code":"NY","country_code":"USA","latitude":40.7464969,"longitude":-74.0094471,"geopoint":{"type":"Point","coordinates":[-74.0094471,40.7464969]}},{"name":"Joost","description":"","address1":"100 5th Ave Fl 6","address2":"","zip_code":"10011-6903","city":"New York","state_code":"NY","country_code":"USA","latitude":40.7464969,"longitude":-74.0094471,"geopoint":{"type":"Point","coordinates":[-74.0094471,40.7464969]}},{"name":"Zemanta","description":"New York Office","address1":"33 West 17th St","address2":"Suite 903","zip_code":"10011","city":"New York","state_code":"NY","country_code":"USA","latitude":40.7387945,"longitude":-73.9939213,"geopoint":{"type":"Point","coordinates":[-73.9939213,40.7387945]}},{"name":"SpaBooker","description":"SpaBooker Head Office","address1":"22 Cortlandt St Floor 18","address2":"","zip_code":"10007","city":"New York","state_code":"NY","country_code":"USA","latitude":40.738567,"longitude":-73.987199,"geopoint":{"type":"Point","coordinates":[-73.987199,40.738567]}},{"name":"Google","description":"Google New York","address1":"76 Ninth Avenue","address2":"4th Floor","zip_code":"10011","city":"New York","state_code":"NY","country_code":"USA","latitude":40.74222,"longitude":-74.004489,"geopoint":{"type":"Point","coordinates":[-74.004489,40.74222]}},{"name":"NHA Media","description":"","address1":"124 Fifth Avenue","address2":"","zip_code":"10001","city":"New York City","state_code":"NY","country_code":"USA","latitude":40.7382749,"longitude":-73.9919538,"geopoint":{"type":"Point","coordinates":[-73.9919538,40.7382749]}},{"name":"Dimestore Media","description":"","address1":"386 Park Ave","address2":"- 19th Floor","zip_code":"10016","city":"NY","state_code":"NY","country_code":"USA","latitude":40.738395,"longitude":-73.993906,"geopoint":{"type":"Point","coordinates":[-73.993906,40.738395]}},{"name":"ecomii","description":"World Headquarters","address1":"448 West 16th Street","address2":"5th Floor","zip_code":"10011","city":"New York","state_code":"NY","country_code":"USA","latitude":40.743157,"longitude":-74.006513,"geopoint":{"type":"Point","coordinates":[-74.006513,40.743157]}},{"name":"MLB Advanced Media","description":"","address1":"75 9th Ave","address2":"","zip_code":"10011","city":"New York","state_code":"NY","country_code":"USA","latitude":40.7418877,"longitude":-74.0047466,"geopoint":{"type":"Point","coordinates":[-74.0047466,40.7418877]}},{"name":"Bonobos","description":"","address1":"45 West 25th Street","address2":"5th Floor","zip_code":"10011","city":"New York","state_code":"NY","country_code":"USA","latitude":40.7384997,"longitude":-73.9954585,"geopoint":{"type":"Point","coordinates":[-73.9954585,40.7384997]}},{"name":"Oyster Digital Media","description":"New York City","address1":"399 East 72 Street 16th Floor","address2":"","zip_code":"10021","city":"New York","state_code":"NY","country_code":"USA","latitude":40.738495,"longitude":-73.9954473,"geopoint":{"type":"Point","coordinates":[-73.9954473,40.738495]}},{"name":"Allopass","description":"New York","address1":"101 5th Ave","address2":"9th Floor","zip_code":"10003","city":"New York","state_code":"NY","country_code":"USA","latitude":40.737989,"longitude":-73.991764,"geopoint":{"type":"Point","coordinates":[-73.991764,40.737989]}},{"name":"PayLoadz","description":"Main","address1":"","address2":"","zip_code":"19106","city":"Philadelphia","state_code":"PA","country_code":"USA","latitude":40.738832,"longitude":-73.981534,"geopoint":{"type":"Point","coordinates":[-73.981534,40.738832]}},{"name":"WeTxt","description":"New York","address1":"330 W. 15th St.","address2":"Suite 4B","zip_code":"10011","city":"New York","state_code":"NY","country_code":"USA","latitude":40.740837,"longitude":-74.003466,"geopoint":{"type":"Point","coordinates":[-74.003466,40.740837]}},{"name":"Producteev","description":"Headquarters","address1":"242W 30th Street","address2":"Suite 501","zip_code":"10001","city":"New York","state_code":"NY","country_code":"USA","latitude":40.775309,"longitude":-73.983656,"geopoint":{"type":"Point","coordinates":[-73.983656,40.775309]}},{"name":"Producteev","description":"Headquarters","address1":"242W 30th Street","address2":"Suite 501","zip_code":"10001","city":"New York","state_code":"NY","country_code":"USA","latitude":40.775309,"longitude":-73.983656,"geopoint":{"type":"Point","coordinates":[-73.983656,40.775309]}},{"name":"Special Ops Media","description":null,"address1":"235 Park Ave South","address2":"5th floor","zip_code":"10003","city":"New York City","state_code":"NY","country_code":"USA","latitude":40.737721,"longitude":-73.987725,"geopoint":{"type":"Point","coordinates":[-73.987725,40.737721]}},{"name":"manageME7","description":"","address1":"228 Park Ave S # 25950","address2":"","zip_code":"10003","city":"New York","state_code":"NY","country_code":"USA","latitude":40.7376483,"longitude":-73.988315,"geopoint":{"type":"Point","coordinates":[-73.988315,40.7376483]}},{"name":"VISUALPLANT","description":"California","address1":"200 Winchester Circle","address2":"Suite D320","zip_code":"95032","city":"Los Gatos","state_code":"CA","country_code":"USA","latitude":40.738476,"longitude":-73.998726,"geopoint":{"type":"Point","coordinates":[-73.998726,40.738476]}},{"name":"Robotgalaxy","description":"","address1":"41 Union Square West,","address2":"Suite 808","zip_code":"10003","city":"New York","state_code":"NY","country_code":"USA","latitude":40.737216,"longitude":-73.990947,"geopoint":{"type":"Point","coordinates":[-73.990947,40.737216]}},{"name":"BustedTees","description":"","address1":"54 West 22nd Street","address2":"","zip_code":"10003","city":"New York","state_code":"NY","country_code":"USA","latitude":40.737136,"longitude":-73.987973,"geopoint":{"type":"Point","coordinates":[-73.987973,40.737136]}},{"name":"OrganizedWisdom","description":null,"address1":"2000 Broadway","address2":"18th Floor","zip_code":"10023","city":"New York","state_code":"NY","country_code":"USA","latitude":40.775537,"longitude":-73.981709,"geopoint":{"type":"Point","coordinates":[-73.981709,40.775537]}},{"name":"MissGift","description":null,"address1":"200 East 21st Street","address2":"4F","zip_code":"10010","city":"New York","state_code":"NY","country_code":"USA","latitude":40.737363,"longitude":-73.983665,"geopoint":{"type":"Point","coordinates":[-73.983665,40.737363]}},{"name":"CashEdge","description":"Corporate Headquarters","address1":"215 Park Avenue South","address2":"Suite 1300","zip_code":"10003","city":"New York","state_code":"NY","country_code":"USA","latitude":40.736796,"longitude":-73.988339,"geopoint":{"type":"Point","coordinates":[-73.988339,40.736796]}},{"name":"Fabian Rossano Studio","description":"studio","address1":"348 West 14th Street","address2":"Fl 3","zip_code":"10014","city":"New York","state_code":"NY","country_code":"USA","latitude":40.740371,"longitude":-74.004777,"geopoint":{"type":"Point","coordinates":[-74.004777,40.740371]}},{"name":"Meet Now Live","description":"","address1":"165 West End Ave","address2":"Suite 3J","zip_code":"10023","city":"New York","state_code":"NY","country_code":"USA","latitude":40.777072,"longitude":-73.987036,"geopoint":{"type":"Point","coordinates":[-73.987036,40.777072]}},{"name":"OkCupid","description":"","address1":"39 W 14th St","address2":"Ste 502","zip_code":"10011-7403","city":"New York","state_code":"NY","country_code":"USA","latitude":40.7368158,"longitude":-73.9955426,"geopoint":{"type":"Point","coordinates":[-73.9955426,40.7368158]}},{"name":"Someecards","description":"","address1":"401 1st Ave","address2":"Apt 7c","zip_code":"10010","city":"New York","state_code":"NY","country_code":"USA","latitude":40.737778,"longitude":-73.979508,"geopoint":{"type":"Point","coordinates":[-73.979508,40.737778]}},{"name":"Forbes","description":"","address1":"60 5th Avenue","address2":"","zip_code":"10011","city":"New York","state_code":"NY","country_code":"USA","latitude":40.736416,"longitude":-73.993302,"geopoint":{"type":"Point","coordinates":[-73.993302,40.736416]}},{"name":"MBV","description":"","address1":"","address2":"","zip_code":"10065","city":"New York","state_code":"NY","country_code":"USA","latitude":40.763498,"longitude":-73.9639021,"geopoint":{"type":"Point","coordinates":[-73.9639021,40.763498]}},{"name":"ChallengePost","description":"","address1":"425 West 13th Street","address2":"Suite 504","zip_code":"10014","city":"New York","state_code":"NY","country_code":"USA","latitude":40.7408042,"longitude":-74.00717,"geopoint":{"type":"Point","coordinates":[-74.00717,40.7408042]}},{"name":"FriendsTribe","description":null,"address1":"417 E 57th St. Suite 26B","address2":"","zip_code":"10022","city":"New York","state_code":"NY","country_code":"USA","latitude":40.758006,"longitude":-73.96224,"geopoint":{"type":"Point","coordinates":[-73.96224,40.758006]}},{"name":"betaworks","description":"betaworks","address1":"416 W 13th Suite 203","address2":"","zip_code":"10014","city":"New York","state_code":"NY","country_code":"USA","latitude":40.74034,"longitude":-74.00721,"geopoint":{"type":"Point","coordinates":[-74.00721,40.74034]}},{"name":"Bitly","description":"","address1":"","address2":"","zip_code":"","city":"New York","state_code":"NY","country_code":"USA","latitude":40.74034,"longitude":-74.00721,"geopoint":{"type":"Point","coordinates":[-74.00721,40.74034]}},{"name":"Bloglovin","description":"Bloglovin' US","address1":"416 W 13th St","address2":"Suite 203","zip_code":"10014","city":"New York","state_code":"NY","country_code":"USA","latitude":40.740308,"longitude":-74.007199,"geopoint":{"type":"Point","coordinates":[-74.007199,40.740308]}},{"name":"Digital Railroad","description":null,"address1":"116 E 16th Street","address2":"12th Floor","zip_code":"10003","city":"New York","state_code":"NY","country_code":"USA","latitude":40.735327,"longitude":-73.988469,"geopoint":{"type":"Point","coordinates":[-73.988469,40.735327]}},{"name":"Gawkk","description":"New York, NY","address1":"258 W. 71 Street","address2":"Ste. 1A","zip_code":"10023","city":"New York","state_code":"NY","country_code":"USA","latitude":40.778635,"longitude":-73.984438,"geopoint":{"type":"Point","coordinates":[-73.984438,40.778635]}},{"name":"StyleCard","description":"Headquarters","address1":"61 Jane Street","address2":"","zip_code":"10014","city":"New York","state_code":"NY","country_code":"USA","latitude":40.738137,"longitude":-74.0058,"geopoint":{"type":"Point","coordinates":[-74.0058,40.738137]}},{"name":"Reprise Media","description":"Corporate Headquarters","address1":"55 5th. Ave.","address2":"16th Floor","zip_code":"10003","city":"New York","state_code":"NY","country_code":"USA","latitude":40.734722,"longitude":-73.994078,"geopoint":{"type":"Point","coordinates":[-73.994078,40.734722]}},{"name":"Pivotal Labs","description":"New York Office","address1":"841 Broadway","address2":"8th Floor","zip_code":"10003","city":"New York","state_code":"NY","country_code":"USA","latitude":40.7343617,"longitude":-73.9910647,"geopoint":{"type":"Point","coordinates":[-73.9910647,40.7343617]}},{"name":"Buzzd","description":"buzzd HQ","address1":"833 Broadway","address2":"","zip_code":"10003","city":"New York","state_code":"NY","country_code":"USA","latitude":40.733928,"longitude":-73.991334,"geopoint":{"type":"Point","coordinates":[-73.991334,40.733928]}},{"name":"Sailthru","description":"New York","address1":"160 Varick St.","address2":"12th floor","zip_code":"10013","city":"New York","state_code":"NY","country_code":"USA","latitude":40.738143,"longitude":-74.008159,"geopoint":{"type":"Point","coordinates":[-74.008159,40.738143]}},{"name":"Chartbeat","description":"","address1":"826 Broadway","address2":"6th Floor","zip_code":"10003","city":"New York","state_code":"NY","country_code":"USA","latitude":40.73343,"longitude":-73.990967,"geopoint":{"type":"Point","coordinates":[-73.990967,40.73343]}},{"name":"Socialight","description":null,"address1":"36 E 12th St","address2":"6th Floor","zip_code":"10003","city":"New York","state_code":"NY","country_code":"USA","latitude":40.733386,"longitude":-73.992189,"geopoint":{"type":"Point","coordinates":[-73.992189,40.733386]}},{"name":"Navatar Group","description":"Navatar Group","address1":"44 Wall Street, 12th Floor","address2":"","zip_code":"10005","city":"New York","state_code":"NY","country_code":"USA","latitude":40.733242,"longitude":-73.991877,"geopoint":{"type":"Point","coordinates":[-73.991877,40.733242]}},{"name":"HItviews","description":"New York Office","address1":"817 Broadway","address2":"5th floor","zip_code":"10003","city":"New York City","state_code":"NY","country_code":"USA","latitude":40.733201,"longitude":-73.991535,"geopoint":{"type":"Point","coordinates":[-73.991535,40.733201]}},{"name":"MIVA","description":"","address1":"41 East 11th Street","address2":"","zip_code":"10013","city":"New York","state_code":"NY","country_code":"USA","latitude":40.733276,"longitude":-73.9932793,"geopoint":{"type":"Point","coordinates":[-73.9932793,40.733276]}},{"name":"Ziki","description":"","address1":"41 East 11th Street","address2":"","zip_code":"10003","city":"New York","state_code":"NY","country_code":"USA","latitude":40.733276,"longitude":-73.9932793,"geopoint":{"type":"Point","coordinates":[-73.9932793,40.733276]}},{"name":"Monitor110","description":"","address1":"58 E 11th St.","address2":"3rd Flr.","zip_code":"10003","city":"New York","state_code":"NY","country_code":"USA","latitude":40.732748,"longitude":-73.992607,"geopoint":{"type":"Point","coordinates":[-73.992607,40.732748]}},{"name":"Tabbery","description":"","address1":"","address2":"","zip_code":"","city":"New York","state_code":"NY","country_code":"USA","latitude":40.732525,"longitude":-73.990076,"geopoint":{"type":"Point","coordinates":[-73.990076,40.732525]}},{"name":"FledgeWing","description":"New York Office","address1":"","address2":"","zip_code":"10003","city":"New York","state_code":"NY","country_code":"USA","latitude":40.7322535,"longitude":-73.9874105,"geopoint":{"type":"Point","coordinates":[-73.9874105,40.7322535]}},{"name":"Answerology","description":null,"address1":"561 Hudson Street","address2":"Suite 15","zip_code":"10014","city":"New York","state_code":"NY","country_code":"USA","latitude":40.735537,"longitude":-74.006179,"geopoint":{"type":"Point","coordinates":[-74.006179,40.735537]}},{"name":"Healogica","description":"World Headquarters","address1":"47 West 76th Street","address2":"#4","zip_code":"10023","city":"New York","state_code":"NY","country_code":"USA","latitude":40.779959,"longitude":-73.976151,"geopoint":{"type":"Point","coordinates":[-73.976151,40.779959]}},{"name":"GoldMic","description":"","address1":"","address2":"","zip_code":"10003","city":"New York","state_code":"NY","country_code":"USA","latitude":40.731392,"longitude":-73.9884,"geopoint":{"type":"Point","coordinates":[-73.9884,40.731392]}},{"name":"Guru's Feet","description":null,"address1":"","address2":"","zip_code":"10003","city":"NYC","state_code":"NY","country_code":"USA","latitude":40.731392,"longitude":-73.9884,"geopoint":{"type":"Point","coordinates":[-73.9884,40.731392]}},{"name":"ListensToYou","description":"Main Office","address1":"","address2":"","zip_code":"10003","city":"New York","state_code":"NY","country_code":"USA","latitude":40.731392,"longitude":-73.9884,"geopoint":{"type":"Point","coordinates":[-73.9884,40.731392]}},{"name":"GoldMic","description":"","address1":"","address2":"","zip_code":"10003","city":"New York","state_code":"NY","country_code":"USA","latitude":40.731392,"longitude":-73.9884,"geopoint":{"type":"Point","coordinates":[-73.9884,40.731392]}},{"name":"WiFilez","description":"main office","address1":"","address2":"","zip_code":"10014","city":"New York","state_code":"NY","country_code":"USA","latitude":40.734331,"longitude":-74.005661,"geopoint":{"type":"Point","coordinates":[-74.005661,40.734331]}},{"name":"AOL","description":"HQ","address1":"770 Broadway","address2":"","zip_code":"10003","city":"New York","state_code":"NY","country_code":"USA","latitude":40.7311317,"longitude":-73.9919311,"geopoint":{"type":"Point","coordinates":[-73.9919311,40.7311317]}},{"name":"Nielsen Online","description":"","address1":"770 Broadway,","address2":"13th Fl.","zip_code":"10003","city":"New York","state_code":"NY","country_code":"USA","latitude":40.7311317,"longitude":-73.9919311,"geopoint":{"type":"Point","coordinates":[-73.9919311,40.7311317]}},{"name":"Buzzmetrics","description":null,"address1":"770 Broadway","address2":null,"zip_code":"10003","city":"New York","state_code":"NY","country_code":"USA","latitude":40.731118,"longitude":-73.991933,"geopoint":{"type":"Point","coordinates":[-73.991933,40.731118]}},{"name":"Nielsen","description":"","address1":"85 Broad Street","address2":"","zip_code":"10004","city":"New York","state_code":"NY","country_code":"USA","latitude":40.731118,"longitude":-73.991933,"geopoint":{"type":"Point","coordinates":[-73.991933,40.731118]}},{"name":"Discovery Mining","description":"New York Office","address1":"770 Broadway","address2":"2nd Floor, Suite 218","zip_code":"10003","city":"New York","state_code":"NY","country_code":"USA","latitude":40.731118,"longitude":-73.991933,"geopoint":{"type":"Point","coordinates":[-73.991933,40.731118]}},{"name":"RateZip","description":"","address1":"60 E 9th St","address2":"","zip_code":"10003","city":"New York","state_code":"NY","country_code":"USA","latitude":40.731085,"longitude":-73.992633,"geopoint":{"type":"Point","coordinates":[-73.992633,40.731085]}},{"name":"RayV","description":null,"address1":"150 West 77, Suite 4","address2":null,"zip_code":null,"city":"New York","state_code":"NY","country_code":"USA","latitude":40.781159,"longitude":-73.978332,"geopoint":{"type":"Point","coordinates":[-73.978332,40.781159]}}]